name,npsn,level,status,accreditation,district,address,latitude,longitude
MI AL HIDAYAH,60712252,SD,SWASTA,B,Sukolilo,NGANDONG,-6.9848,110.8354
MI AL HIDAYAH PRAWOTO,60712243,SD,SWASTA,A,Sukolilo,Dukuh Sewunegaran RT 006 RW 005 Desa Prawoto,-6.9625,110.8291
MI AL MU`MIN,60712250,SD,SWASTA,A,Sukolilo,JL.Makam Sunan Prawoto Rt06Rw05,-6.9625,110.8291
MI DARUL ULUM,60712255,SD,SWASTA,B,Sukolilo,BATUREJO,-6.9197,110.9135
MI I`ANATUL ATHFAL,60712248,SD,SWASTA,A,Sukolilo,Dukuh Dermoyo RT 01 RW 01 Ds Cengkalsewu Kec. Sukolilo Kab. Pati,-6.9035,110.9606
MI MATHOLIBUL ULUM,60712253,SD,SWASTA,B,Sukolilo,Dukuh Jongso Rt 04 Rw 10,-6.8726,110.8885
MI MIFTAHUL FALAH,60712247,SD,SWASTA,A,Sukolilo,WOTAN,-6.9188351,110.9048581
MI MIFTAHUL HUDA,60712249,SD,SWASTA,A,Sukolilo,Dk. Papasan RT 003 RW 003,-6.9261,110.8893
MI RAUDLATUL ULUM,69994874,SD,SWASTA,A,Sukolilo,Jl. Sunan Prawoto Km. 07,0.0,0.0
MI RAUDLATUS SYUBBAN,60712242,SD,SWASTA,B,Sukolilo,Jln. K.H. Abdul Qodir No. 03 Kincir,-6.9618,110.8592
MI SABILUL HUDA,60712244,SD,SWASTA,B,Sukolilo,GALIRAN,-6.9165,110.8543
MI SULTAN AGUNG 01,60712254,SD,SWASTA,A,Sukolilo,JL. RAYA PATI PURWODADI,-6.9028,110.9145
MI SULTAN AGUNG 02,60712245,SD,SWASTA,A,Sukolilo,JLN.TALANGTUMENGGUNG NO.35,-6.9458,110.9203
MI SULTAN AGUNG 03,60712246,SD,SWASTA,B,Sukolilo,KEDUNGWINONG,-6.9315,110.9005
MI TARBIYATUL ISLAMIYAH,60712256,SD,SWASTA,B,Sukolilo,JL. GUA WARIH GG. NO. I PURI,-6.9127,110.9582
MI TARBIYATUL ISLAMIYAH,60712257,SD,SWASTA,B,Sukolilo,Jl. Cengkalsewu - Bareng Km. 4 Desa Kasiyan RT. 005 / RW. 001,-6.9063,110.9478
MTS MIFTAHUL FALAH,20364098,SD,SWASTA,B,Sukolilo,Wotan,-6.962378,110.936435
MTS MIFTAHUT THULLAB,20364096,SD,SWASTA,B,Sukolilo,JL. RAYA PATI-PURWODADI KM.20,-6.9091,110.9608
MTS SULTAN AGUNG,20364097,SD,SWASTA,A,Sukolilo,Komplek Pengajaran,-6.9376,110.9128
MTS SUNAN PRAWOTO,20364095,SD,SWASTA,A,Sukolilo,"JL H. HASYIM NOMOR 5 PRAWOTO, SUKOLILO, PATI 59172",-6.9601,110.827
SD ISLAM SUKOLILO,20339216,SD,SWASTA,B,Sukolilo,jl raya pati purwodadi km 28,-6.9099,110.9178
SD MUHAMMADIYAH KEDUNGWINONG,20348740,SD,SWASTA,B,Sukolilo,DUK KRASAK,-6.8995,110.9094
SD NEGERI BALEADI 01,20317041,SD,NEGERI,B,Sukolilo,Baleadi,-6.9326,110.8864
SD NEGERI BANTENGURIP,20317033,SD,NEGERI,B,Sukolilo,Dk. Bantengurip,-6.9537,110.8901
SD NEGERI BATUREJO 01,20317066,SD,NEGERI,A,Sukolilo,Ds Baturejo,-6.931,110.911
SD NEGERI BATUREJO 02,20317065,SD,NEGERI,B,Sukolilo,"Dk. Ronggo, Rt. 01 Rw. 1",-6.9191,110.9108
SD NEGERI BATUREJO 03,20317064,SD,NEGERI,A,Sukolilo,Baturejo,-6.9186,110.9159
SD NEGERI CENGKALSEWU 01,20317027,SD,NEGERI,A,Sukolilo,Ds Cengkalsewu,-6.9094,110.9631
SD NEGERI GADUDERO,20317116,SD,NEGERI,B,Sukolilo,Gadudero,-6.9254,110.9369
SD NEGERI GALIRAN,20317112,SD,NEGERI,A,Sukolilo,Galiran Rt 02 Rw 09,-6.9126,110.8555
SD NEGERI GELUR,20317109,SD,NEGERI,B,Sukolilo,Dukuh Gelur,-6.956,110.9714
SD NEGERI GODONGAN,20317104,SD,NEGERI,B,Sukolilo,DUSUN GODONGAN,-6.9219,110.8532
SD NEGERI JONGSO,20317068,SD,NEGERI,B,Sukolilo,Jongso,-6.8731,110.8891
SD NEGERI KASIYAN,20316278,SD,NEGERI,A,Sukolilo,Kasiyan,-6.9073,110.9491
SD NEGERI KEDUMULYO 01,20316276,SD,NEGERI,B,Sukolilo,Kedumulyo Rt 01 Rw 02,-6.9183,110.9483
SD NEGERI KEDUMULYO 02,20316275,SD,NEGERI,B,Sukolilo,Kedumulyo,-6.9251,110.9578
SD NEGERI KEDUNGWINONG 01,20316269,SD,NEGERI,A,Sukolilo,Jln. Sunan Prawoto km.2,-6.9382,110.9033
SD NEGERI KUWAWUR 01,20316383,SD,NEGERI,A,Sukolilo,Ds Kuwawur,-6.9628,110.8784
SD NEGERI KUWAWUR 02,20316382,SD,NEGERI,A,Sukolilo,Ds. Kuwawur,-6.9529,110.8812
SD NEGERI PAKEM 01,20316152,SD,NEGERI,A,Sukolilo,Ds Pakem Rt 06 Rw 04,-6.9813,110.8575
SD NEGERI PAKEM 02,20316133,SD,NEGERI,A,Sukolilo,Dk. Ngrombo,-6.9105,110.8518
SD NEGERI PLOSOKEREP,20316215,SD,NEGERI,B,Sukolilo,Dk. Plosokerep,-6.9892,110.8222
SD NEGERI PONCOMULYO,20316206,SD,NEGERI,A,Sukolilo,Dukuh Poncomulyo Desa Gadudero,-6.95,110.9252
SD NEGERI PORANG PARING,20331992,SD,NEGERI,A,Sukolilo,Dk. Randukuning,-6.9649,110.9003
SD NEGERI PRAWOTO 02,20316241,SD,NEGERI,A,Sukolilo,Dk Sewunegaran,-6.962,110.828
SD NEGERI PRAWOTO 03,20316240,SD,NEGERI,B,Sukolilo,Dk. Karang Tandan Rt.09 Rw.04,-6.9649,110.824
SD NEGERI SALANGAMER,20316171,SD,NEGERI,B,Sukolilo,Dsn.Salangamer RT.07/RW.06,-6.9664,110.8497
SD NEGERI SUKOLILO 01,20340705,SD,NEGERI,A,Sukolilo,Jl. Raya Pati - Puwodadi Km. 26 Sukolilo Kab. Pati 59172,-6.9307,110.9179
SD NEGERI SUKOLILO 02,20316571,SD,NEGERI,A,Sukolilo,Ds Sukolilo,-6.9421,110.924
SD NEGERI SUKOLILO 03,20340613,SD,NEGERI,A,Sukolilo,Jl. Sukolilo - Prawoto Km 1,-6.9394,110.9125
SD NEGERI SUKOLILO 04,20316570,SD,NEGERI,A,Sukolilo,Jl Sumber Gemblung,-6.9499,110.9192
SD NEGERI SUMBERSOKO 01,20316556,SD,NEGERI,A,Sukolilo,"Dk. Doplang, RT 05 RW 01",-6.9566,110.9307
SD NEGERI SUMBERSOKO 02,20340707,SD,NEGERI,B,Sukolilo,Ds Sumbersoko,-6.972,110.938
SD NEGERI TOMPEGUNUNG,20316634,SD,NEGERI,A,Sukolilo,Tompegunung,-6.936,110.9546
SD NEGERI WEGIL,20316434,SD,NEGERI,A,Sukolilo,Jalan Sunan Prawoto Km. 07,-6.9519,110.8554
SD NEGERI WOTAN 01,20316443,SD,NEGERI,B,Sukolilo,Wotan Rt 04 Rw 01,-6.923,110.9091
SD NEGERI WOTAN 02,20316461,SD,NEGERI,A,Sukolilo,Ds Wotan,-6.9161,110.9055
SD NEGERI WOTAN 04,20316460,SD,NEGERI,B,Sukolilo,Wotan,-6.8872,110.8856
SMP ISLAM SULTAN AGUNG SUKOLILO,20338951,SMP,SWASTA,A,Sukolilo,Jl. Pati Purwodadi Km 27 Sukolilo,-6.9302,110.9135
SMP MUHAMMADIYAH 3 SUKOLILO,20338956,SMP,SWASTA,B,Sukolilo,Jl. K.H. Ahmad Dahlan No.5,-6.9461,110.9169
SMP NEGERI 1 SUKOLILO,20338976,SMP,NEGERI,A,Sukolilo,Jl. Sunan Prawoto No.933,-6.9388,110.9065
SMP NEGERI 2 SUKOLILO,20338990,SMP,NEGERI,A,Sukolilo,Jalan Sunan Prawoto Km. 06,-6.9468,110.8661
SMP PGRI 15 SUKOLILO,20338966,SMP,SWASTA,A,Sukolilo,Jl. Sunan Prawoto No.9 Kec. Sukolilo-Pati,-6.8944,110.8972
SMP SATU ATAP NEGERI 1 KUWAWUR,20362594,SMP,NEGERI,C,Sukolilo,Desa Kuwawur,-6.9621,110.8814
SMP SATU ATAP NEGERI 1 PONCOMULYO,20362048,SMP,NEGERI,B,Sukolilo,Dukuh Poncomulyo Desa Gadudero,-6.8687,110.9282
SMP SATU ATAP NEGERI 1 SUMBERSOKO,20362593,SMP,NEGERI,B,Sukolilo,Desa Sumbersoko,-6.9719,110.9376
MI AL- FALAH,60712204,SD,SWASTA,A,Kayen,Jl. Masjid Al Falah Gang Arjuna No. 5  Desa Talun 59171,-6.8624,110.986
MI KHOIRIYAH,60712202,SD,SWASTA,A,Kayen,CARIKAN,-6.8978,110.9906
MI MAMBAUL ULUM,60712197,SD,SWASTA,A,Kayen,KAYEN,-6.8979,110.9782
MI MIFTAHUL HUDA,60712207,SD,SWASTA,A,Kayen,JL. K.H Mataram 01 RT 07 RW 02 Jatiroto,-6.8913,111.0102
MI MIFTAHUL ISLAMIYAH,69725760,SD,SWASTA,B,Kayen,DS.JIMBARAN KEC KAYEN,-6.9138,110.9765
MI MIFTAHUL MUHTADIN,60712200,SD,SWASTA,A,Kayen,JL. PATI-KAYEN KM.12,-6.8484,111.0075
MI MIFTAHUL ULUM,60712198,SD,SWASTA,A,Kayen,Dukuh Malangan RT.03 RW.04,-6.8879,110.97
MI NIHAYATURROGHIBIN,60712206,SD,SWASTA,A,Kayen,JL.RAYAPATI-KAYEN KM.12,-6.8465,111.0077
MI NURUL FALAH,69894629,SD,SWASTA,B,Kayen,Rt 02 Rw 1 Desa Brati Kecamatan Kayen Kabupaten Pati,-6.9076,111.0255
MI RAUDLATUL MUTA`ALLIMIN,69725759,SD,SWASTA,B,Kayen,DS.PESAGI KEC KAYEN,-6.8732,110.9832
MI SIROJUL HUDA,60712203,SD,SWASTA,A,Kayen,RT. 005 RW. 002,-6.8759,110.9675
MI TAMRINUSSIBYAN,60712201,SD,SWASTA,A,Kayen,SUMBERSARI,-6.9128,110.9936
MI TAMRINUTH THULLAB,60712205,SD,SWASTA,A,Kayen,RT 01 RW 04 Desa Rogomulyo Kecamatan Kayen Kabupaten Pati Provinsi Jawa Tengah,-6.8684,110.9966
MI TARBIYATUL ISLAMIYAH,60712199,SD,SWASTA,B,Kayen,Desa Srikaton Kec.Kayen,-6.8898,110.964
MIN 1 PATI,60712196,SD,NEGERI,A,Kayen,JL. KAYEN SUMBERSARI KM. 02,-6.9063,110.9889
MTS ASSYAFIIYYAH,20364075,SD,SWASTA,A,Kayen,JL. MASJID RAUDLATUL MUTTAQIN,-6.8667,110.9863
MTS JOYO KUSUMO,69725108,SD,SWASTA,B,Kayen,PASURUHAN RT 05 RW 02 KECAMATAN KAYEN,-6.877,110.9679
MTS MIFTAHUL FALAH,69725106,SD,SWASTA,B,Kayen,DS.TALUN KEC KAYEN,-6.8644319,110.9874774
MTS MIFTAHUL MUHTADIN,20364073,SD,SWASTA,B,Kayen,JL PATI-KAYEN KM 12.2,-6.918575,110.993825
MTS MIFTAHUL ULUM,20364074,SD,SWASTA,A,Kayen,"DK. MALANGAN RT 03/ RW 04, DS. TRIMULYO, KEC. KAYEN KAB. PATI",-6.911956,111.003534
MTS NIHAYATURROGHIBIN,20364070,SD,SWASTA,B,Kayen,SUNDOLUHUR KAYEN,-6.9135,111.008
MTS SIROJUL HUDA,20364072,SD,SWASTA,B,Kayen,PASURUHAN,-6.876,110.9674
MTS TAMRINUSSIBYAN,20364071,SD,SWASTA,B,Kayen,JL. RAYA KAYEN SUMBERSARI,-6.9127,110.9937
MTS WALISONGO,20364069,SD,SWASTA,A,Kayen,JL MASJID JAMI KAYEN,-6.9587,110.9841
SD NEGERI BEKETEL 01,20317216,SD,NEGERI,A,Kayen,Jln Kayen-karangasem Km 9,-6.9569,111.0117
SD NEGERI BOLOAGUNG 01,20317051,SD,NEGERI,B,Kayen,Jln. Kayen - Pati Km. 13,-6.8595,111.003
SD NEGERI BOLOAGUNG 02,20317032,SD,NEGERI,A,Kayen,Ds. Boloagung RT. 17 RW. 03,-6.9049,110.9959
SD NEGERI BRATI 01,20317071,SD,NEGERI,A,Kayen,Brati,-6.9073,111.0273
SD NEGERI BRATI 02,20317011,SD,NEGERI,B,Kayen,Pedak - Brati,-6.929,111.0333
SD NEGERI DURENSAWIT 01,20317121,SD,NEGERI,A,Kayen,Durensawit,-6.9192,110.9885
SD NEGERI DURENSAWIT 02,20317141,SD,NEGERI,B,Kayen,"Ciroto, Durensawit",-6.9648,110.987
SD NEGERI JATIROTO 01,20317101,SD,NEGERI,B,Kayen,Jatiroto,-6.8872,111.008
SD NEGERI JATIROTO 02,20317100,SD,NEGERI,A,Kayen,Jatiroto,-6.9289,110.9978
SD NEGERI JATIROTO 03,20317247,SD,NEGERI,B,Kayen,Jl.Kayen-Tambakromo Km.01,-6.922,110.9973
SD NEGERI JATIROTO 04,20317243,SD,NEGERI,B,Kayen,JL. KI BAGUS KUNCUNG,-6.8959,111.0103
SD NEGERI JIMBARAN 01,20317257,SD,NEGERI,A,Kayen,Jimbaran,-6.9123,110.9713
SD NEGERI JIMBARAN 02,20340699,SD,NEGERI,B,Kayen,Jln. O.W Goa Pancur,-6.9153,110.9765
SD NEGERI KAYEN 01,20316257,SD,NEGERI,A,Kayen,Ds Kayen Rt 03 Rw 01,-6.8917,110.9872
SD NEGERI KAYEN 02,20316256,SD,NEGERI,B,Kayen,JL. PERHUTANI KAYEN,-6.8936,110.9869
SD NEGERI KAYEN 03,20316255,SD,NEGERI,B,Kayen,"Jln Perhutani, Kayen",-6.8937,110.987
SD NEGERI KAYEN 04,20316367,SD,NEGERI,A,Kayen,Kayen,-6.8986,110.9772
SD NEGERI KAYEN 05,20316254,SD,NEGERI,A,Kayen,Kayen,-6.8979,110.9862
SD NEGERI KAYEN 06,20316253,SD,NEGERI,B,Kayen,"Kayen, Rt. 02 Rw.02",-6.9022,110.9877
SD NEGERI PASURUHAN,20316102,SD,NEGERI,A,Kayen,Pasuruhan,-6.8771,110.9694
SD NEGERI PESAGI 02,20316219,SD,NEGERI,A,Kayen,Pesagi,-6.8733,110.9843
SD NEGERI PURWOKERTO,20316205,SD,NEGERI,B,Kayen,Purwokerto,-6.9526,111.027
SD NEGERI ROGOMULYO 01,20316174,SD,NEGERI,A,Kayen,Rogomulyo,-6.8701,111.1505
SD NEGERI ROGOMULYO 02,20317251,SD,NEGERI,A,Kayen,Jl. Raya Pati-Kayen KM.14,-6.8698,110.9978
SD NEGERI SLUNGKEP 02,20316600,SD,NEGERI,A,Kayen,"Jln. Ki Rahman, Slungkep",-6.9125,110.9911
SD NEGERI SLUNGKEP 03,20316599,SD,NEGERI,B,Kayen,Slungkep,-6.8799,110.9854
SD NEGERI SRIKATON 01,20316551,SD,NEGERI,A,Kayen,Desa Srikaton RT 03 RW 01,-6.9035,110.9611
SD NEGERI SRIKATON 02,20316549,SD,NEGERI,B,Kayen,Jl Kersen Desa Srikaton Rt 02 Rw 03,-6.8876,110.9609
SD NEGERI SUMBERSARI 01,20316559,SD,NEGERI,B,Kayen,Sumbersari,-6.9155,110.9926
SD NEGERI SUMBERSARI 02,20316558,SD,NEGERI,A,Kayen,Jl. Raya Kayen-Beketel Km. 02,-6.9156,110.9925
SD NEGERI SUMBERSARI 03,20316557,SD,NEGERI,B,Kayen,Sumbersari,-6.9307,111.0097
SD NEGERI SUNDOLUHUR 01,20316671,SD,NEGERI,B,Kayen,Sundoluhur,-6.85,111.007
SD NEGERI TALUN 01,20316656,SD,NEGERI,A,Kayen,Ds. Talun Rt 02/03 Kec. Kayen Kab. Pati,-6.8661,110.986
SD NEGERI TALUN 02,20316655,SD,NEGERI,A,Kayen,TALUN  KAYEN PATI,-6.865,110.9864
SD NEGERI TRIMULYO 02,20338855,SD,NEGERI,A,Kayen,Desa Trimulyo Rt. 01 Rw. 03,-6.9002,110.9791
SMP ISLAM TERPADU AL MASYHUR,20338950,SMP,SWASTA,B,Kayen,Jatiroto-kayen,-6.8865,111.0044
SMP ISLAM TERPADU ASSYAFI IYAH,69944153,SMP,SWASTA,C,Kayen,"Desa Sundoluhur Rt 05 Rw 01 Kayen, Pati",-6.730147,111.0545842
SMP MUHAMMADIYAH 5 KAYEN,20338958,SMP,SWASTA,A,Kayen,Jl Perhutani No 1,-6.8916,110.9872
SMP NEGERI 1 KAYEN,20338859,SMP,NEGERI,A,Kayen,Jl Kayen,-6.898,110.9708
SMP NEGERI 2 KAYEN,20338987,SMP,NEGERI,A,Kayen,JL. PATI - KAYEN KM. 14,-6.8798,110.9989
SMP PGRI 6 KAYEN,20338968,SMP,SWASTA,B,Kayen,Jl Perhutani Kayen Km 0,-6.892,110.9866
SMP SATU ATAP NEGERI 1 BEKETEL,20362595,SMP,NEGERI,C,Kayen,Jalan Kayen Karangasem Km 09,-6.9452,111.0071
SMPQ AL-HAYAH PATI,70014855,SMP,SWASTA,A,Kayen,RT. 05  RW 03,0.0,0.0
MI DARUL MUQODDAS,60712258,SD,SWASTA,A,Tambakromo,MOJOMULYO,-6.8936,111.0385
MI MANBA`UL FALAH,60712259,SD,SWASTA,A,Tambakromo,Rt 005 Rw 002,-6.8857,111.0554
MTS DARUL MUQODAS,60727457,SD,SWASTA,B,Tambakromo,JL. K. SENDANG PUTIH-MBANGER DS. MOJOMULYO,-6.8938,111.0383
MTS MAMBAUL FALAH,20364099,SD,SWASTA,B,Tambakromo,JL TAMBAKROMO MAITAN,-6.8857,111.0551
MTS MIFTAHUL ULUM,20364100,SD,SWASTA,A,Tambakromo,JL. TAMBAKROMO-KAYEN KM 01,-6.8765,111.0316
MTS MIFTAHUL ULUM 2 TAMBAKROMO,69927956,SD,SWASTA,C,Tambakromo,Jl. Tambakromo - Maitan Km.13,-6.9471,111.072
SD NEGERI ANGKATAN KIDUL 01,20317240,SD,NEGERI,A,Tambakromo,Angkatankidul,-6.8558,111.0637
SD NEGERI ANGKATAN LOR 02,20331987,SD,NEGERI,A,Tambakromo,JL. TAMBAKROMO - GABUS KM. 3,-6.8658,111.0556
SD NEGERI KARANGAWEN,20316296,SD,NEGERI,A,Tambakromo,Ds Karangawen,-6.8615,111.0339
SD NEGERI KARANGMULYO,20316313,SD,NEGERI,A,Tambakromo,Jl.Tambakromo-Pati Km 1,-6.8634,111.0475
SD NEGERI KARANGWONO 01,20316301,SD,NEGERI,A,Tambakromo,Karangwono,-6.8653,111.053
SD NEGERI KARANGWONO 02,20316300,SD,NEGERI,A,Tambakromo,DS. KARANGWONO RT. 02/03,-6.8674,111.0535
SD NEGERI KEBEN,20316252,SD,NEGERI,A,Tambakromo,Jln. Tambakromo - Maitan KM 02,-6.8848,111.0554
SD NEGERI KEDALINGAN 02,20316244,SD,NEGERI,A,Tambakromo,Jl Gabus Tambakromo Km 3,-6.8508,111.0511
SD NEGERI LARANGAN,20316373,SD,NEGERI,B,Tambakromo,Ds Larangan,-6.9013,111.0557
SD NEGERI MAITAN 01,20316328,SD,NEGERI,A,Tambakromo,Jl. Raya Tambakromo - Maitan Km. 12,-6.9435,111.0752
SD NEGERI MAITAN 02,20316327,SD,NEGERI,B,Tambakromo,Jln.Tambakromo-Maitan Km 12,-6.9532,111.0714
SD NEGERI MANGUNREKSO 01,20331991,SD,NEGERI,A,Tambakromo,Jl Tambakromo Kayen  Km 3,-6.8704,111.0466
SD NEGERI MANGUNREKSO 02,20316323,SD,NEGERI,A,Tambakromo,Ds Mangunrekso,-6.8839,111.0266
SD NEGERI MOJOMULYO,20316168,SD,NEGERI,A,Tambakromo,Jl. Raya Tambakromo - Kayen Km. 02,-6.8813,111.0365
SD NEGERI PAKIS,20338718,SD,NEGERI,A,Tambakromo,Jl. Raya Kayen - Pakis Km. 12 Desa Pakis,-6.9552,111.0401
SD NEGERI SINOMWIDODO 01,20316574,SD,NEGERI,A,Tambakromo,JL. Tambakromo - Gunung Panti Km. 03,-6.872,111.0644
SD NEGERI SINOMWIDODO 02,20316590,SD,NEGERI,A,Tambakromo,Ds.sinomwidodo,-6.8866,111.067
SD NEGERI SINOMWIDODO 03,20316591,SD,NEGERI,A,Tambakromo,Jln Tambakromo - Gunungpanti Km 02,-6.8718,111.0647
SD NEGERI SITIREJO,20316602,SD,NEGERI,A,Tambakromo,Ds Sitirejo Rt 07/ Rw 02,-6.8737,111.0374
SD NEGERI TAMBAHAGUNG 01,20316650,SD,NEGERI,A,Tambakromo,Ds.Tambahagung,-6.8512,111.027
SD NEGERI TAMBAHAGUNG 02,20316649,SD,NEGERI,A,Tambakromo,Ds Tambahagung 02,-6.8621,111.0202
SD NEGERI TAMBAHAGUNG 03,20316648,SD,NEGERI,A,Tambakromo,Tambahagung,-6.8622,111.0197
SD NEGERI TAMBAHARJO 01,20316647,SD,NEGERI,A,Tambakromo,Ds. Tambaharjo,-6.8782,111.0029
SD NEGERI TAMBAHARJO 02,20316673,SD,NEGERI,B,Tambakromo,Tambaharjo,-6.8676,111.0656
SD NEGERI TAMBAKROMO 01,20316687,SD,NEGERI,A,Tambakromo,Tambakromo,-6.8773,111.0448
SD NEGERI WUKIRSARI 02,20331099,SD,NEGERI,A,Tambakromo,Ds Wukirsari,-6.9272,111.075
SMP NEGERI 1 TAMBAKROMO,20338977,SMP,NEGERI,A,Tambakromo,Jl Raya Tambakromo,-6.8717,111.0458
SMP NEGERI 2 TAMBAKROMO,20338991,SMP,NEGERI,A,Tambakromo,Jl.Tambakromo-Maitan Km.12,-6.9264,111.0756
SMP NEGERI 3 TAMBAKROMO,20338996,SMP,NEGERI,A,Tambakromo,Ds Mangunrekso,-6.9586,111.0676
SMP SATU ATAP NEGERI 1 PAKIS,20362046,SMP,NEGERI,C,Tambakromo,Jalan Raya Kayen - Pakis Km.12,-6.9552,111.0399
MI MIFTAHUL HUDA,60712295,SD,SWASTA,B,Winong,TANGGEL RT 06 RW 02,-6.7966,111.1133
MI MIFTAHUL ULUM,60712296,SD,SWASTA,A,Winong,KARANGKONANG,-6.8086,111.1166
MI MIFTAHUSSA`ADAH,60712291,SD,SWASTA,B,Winong,BLINGIJATI,-6.8265,111.0881
MI NAHDLOTUSYSYUBBAN,60712293,SD,SWASTA,B,Winong,SARIMULYO,-6.793,111.137
MI RAUDLATUL ULUM,60712297,SD,SWASTA,A,Winong,Desa Tlogorejo Dkh. Julu RT 04 RW 02 Kec. Winong Kab. Pati Prov. Jawa Tengah,-6.827525,111.124433
MI ROUDLOTUSYSYUBBAN,60712292,SD,SWASTA,A,Winong,TAWANGREJO,-6.8023,111.082
MI TARBIYATUL BANIN,60712294,SD,SWASTA,B,Winong,WIRUN,-6.8723,111.1012
MI TARBIYATUL BANIN,60712289,SD,SWASTA,A,Winong,Pekalongan,-6.8163158,111.1063769
MI TARBIYATUL ISLAMIYAH,60712288,SD,SWASTA,A,Winong,Dk. Pecangaan,-6.812639,111.100568
MI TARBIYATUL MUBTADI,60712290,SD,SWASTA,B,Winong,RT 05 RW 3,-6.8338,111.0938
MIS NURUL IMAN,60712298,SD,SWASTA,B,Winong,PAGENDISAN,-6.8728,111.1011
MTS NAHDLATUSY SYUBBAN,20364134,SD,SWASTA,C,Winong,Desa Sarimulyo RT. 03 RW. 04 Kecamatan Winong Kabupaten Pati Jawa Tengah,-6.859,111.1071
MTS ROUDLOTUL ULUM,69883321,SD,SWASTA,C,Winong,Winong - Gempolsari Km. 4,-6.7909,111.0734
MTS ROUDLOTUSYSYUBBAN,20364135,SD,SWASTA,A,Winong,Tawangrejo RT. 01 RW. 06,-6.8023,111.0821
MTS TARBIYATUL BANIN,20364133,SD,SWASTA,A,Winong,PEKALONGAN,-6.8166,111.107
MTSN 1 PATI,20364132,SD,NEGERI,A,Winong,Jl Raya Winong-Pucakwangi Km. 2,-6.8147,111.1032
SD NEGERI BLINGIJATI,20317054,SD,NEGERI,A,Winong,Blingijati,-6.8282,111.0884
SD NEGERI BRINGINWARENG,20317008,SD,NEGERI,A,Winong,Ds. Bringinwareng Rt 4 Rw 1,-6.7908,111.0703
SD NEGERI BUMIHARJO 01,20317002,SD,NEGERI,A,Winong,Bumiharjo,-6.7958,111.099
SD NEGERI BUMIHARJO 02,20317001,SD,NEGERI,A,Winong,Bumiharjo,-6.791,111.0989
SD NEGERI DANYANGMULYO 01,20331989,SD,NEGERI,A,Winong,Danyangmulyo,-6.8609,111.101
SD NEGERI DANYANGMULYO 02,20340810,SD,NEGERI,B,Winong,Danyangmulyo,-6.8519,111.101
SD NEGERI DEGAN,20317023,SD,NEGERI,B,Winong,Degan,-6.7789,111.0823
SD NEGERI GODO 01,20317127,SD,NEGERI,A,Winong,Jl Godo - Kropak,-6.8745,111.087
SD NEGERI GODO 02,20317126,SD,NEGERI,B,Winong,Dukuh Selowire,-6.9014,111.1024
SD NEGERI GUNUNGPANTI 01,20317078,SD,NEGERI,A,Winong,Gunungpanti,-6.8745,111.0788
SD NEGERI GUNUNGPANTI 02,20317077,SD,NEGERI,B,Winong,Gunungpanti,-6.8658,111.1011
SD NEGERI GUYANGAN,20317072,SD,NEGERI,B,Winong,Guyangan Rt 02 Rw 01,-6.8634,111.1217
SD NEGERI KARANGKONANG,20316297,SD,NEGERI,B,Winong,Karangkonang,-6.8104,111.1163
SD NEGERI KARANGSUMBER 01,20316305,SD,NEGERI,B,Winong,Karangsumber RT.01 RW.02 Kec.Winong Kab.Pati,-6.8603,111.1076
SD NEGERI KARANGSUMBER 02,20316304,SD,NEGERI,A,Winong,Karangsumber,-6.8642,111.1012
SD NEGERI KEBOLAMPANG,20316251,SD,NEGERI,A,Winong,Jalan Raya Winong Pucakwangi Km 5,-6.8442,111.112
SD NEGERI KEBOWAN,20316246,SD,NEGERI,A,Winong,Kebowan,-6.8132,111.0963
SD NEGERI KLECOREGONANG,20316364,SD,NEGERI,A,Winong,KLECOREGONANG,-6.8597,111.1009
SD NEGERI KROPAK 01,20316359,SD,NEGERI,A,Winong,Kropak,-6.8611,111.0923
SD NEGERI KROPAK 02,20316360,SD,NEGERI,A,Winong,Kropak,-6.8624,111.09
SD NEGERI KUDUR,20316356,SD,NEGERI,A,Winong,Kudur,-6.8854,111.0927
SD NEGERI MINTORAHAYU 02,20316343,SD,NEGERI,A,Winong,Mintorahayu,-6.8098,111.0763
SD NEGERI PADANGAN,20316156,SD,NEGERI,A,Winong,Padangan,-6.854,111.0907
SD NEGERI PAGENDISAN,20316155,SD,NEGERI,A,Winong,Pagendisan,-6.8738,111.1141
SD NEGERI PEKALONGAN,20316118,SD,NEGERI,A,Winong,Jl. Winong-Pucakwangi Km. 01,-6.8533,111.1027
SD NEGERI POHGADING,20316210,SD,NEGERI,B,Winong,DESA POHGADING,-6.9251,111.0787
SD NEGERI PULOREJO 01,20316233,SD,NEGERI,A,Winong,Pulorejo,-6.7945,111.1046
SD NEGERI PULOREJO 02,20316232,SD,NEGERI,A,Winong,Pulorejo,-6.7894,111.1112
SD NEGERI SARIMULYO 02,20316200,SD,NEGERI,A,Winong,Sarimulyo,-6.7806,111.1248
SD NEGERI SARIMULYO 03,20316199,SD,NEGERI,A,Winong,Sarimulyo,-6.7794,111.115
SD NEGERI SERUTSADANG,20316587,SD,NEGERI,A,Winong,"Ds. Serutsadang RT. 04 / RW. 01, Kec. Winong, Kab. Pati",-6.7865,111.102
SD NEGERI SUGIHAN,20316544,SD,NEGERI,A,Winong,Sugihan,-6.8529,111.1125
SD NEGERI SUMBERMULYO 01,20316561,SD,NEGERI,A,Winong,Sumbermulyo,-6.784909,111.084394
SD NEGERI SUMBERMULYO 02,20316560,SD,NEGERI,A,Winong,Sumbermulyo,-6.7819,111.0782
SD NEGERI TANGGEL,20316685,SD,NEGERI,A,Winong,Tanggel,-6.7961,111.1125
SD NEGERI TAWANGREJO,20316625,SD,NEGERI,A,Winong,Tawangrejo,-6.802,111.0861
SD NEGERI TLOGOREJO,20316643,SD,NEGERI,B,Winong,SDN TLOGOREJO,-6.8245,111.12
SD NEGERI WINONG 01,20316433,SD,NEGERI,A,Winong,"Jl.Raya Winong- Jakenan Km 0,5 Winong",-6.8066,111.1019
SD NEGERI WIRUN,20316429,SD,NEGERI,A,Winong,Wirun,-6.8561,111.1039
SMP NEGERI 1 WINONG,20338980,SMP,NEGERI,A,Winong,Jalan Jenderal Sudirman No. 38,-6.8093,111.0987
SMP NEGERI 2 WINONG,20338995,SMP,NEGERI,A,Winong,Ds.Danyangmulyo,-6.8517,111.095
MI HIDAYATUSSUBBAN,69827777,SD,SWASTA,B,Pucakwangi,"Jl. Jakenan - Pucakwangi ,Tanjungsekar  Rt. 04/ Rw.IV",-6.839506,111.209002
MI MATHOLI`UL HUDA,60712233,SD,SWASTA,A,Pucakwangi,SOKOPULUHAN PUCAKWANGI PATI,-6.824,111.176
MI MATHOLI`UL ULUM,60712234,SD,SWASTA,B,Pucakwangi,TERTEG,-6.8419,111.2178
MI MIFTAHUL FALAH BODEH,60712241,SD,SWASTA,A,Pucakwangi,BODEH,-6.8374,111.1307
MI MIFTAHUL HUDA,60712235,SD,SWASTA,A,Pucakwangi,TRIGUNO,-6.8191,111.1359
MI MIFTAHUL ULUM,60712231,SD,SWASTA,A,Pucakwangi,JL. PUCAKWANGI-WINONG KM05 DS.KARANGWATON,-6.8377,111.1142
MI NAHJATUL FAIZIN,60712239,SD,SWASTA,A,Pucakwangi,KEPOHKENCONO,-6.837,111.149
MI NURUL QURAN,60712236,SD,SWASTA,B,Pucakwangi,JL.RAYA JUWANA PUCAKWANGI KM.13 TEGALWERO PUCAKWANGI PATI,-6.7965,111.1658
MI TARBIYATUL BANIN,60712232,SD,SWASTA,B,Pucakwangi,Jl. Sokopuluhan Winong Km 03,-6.8012,111.1486
MI Tarbiyatul Islamiyah,69854216,SD,SWASTA,A,Pucakwangi,Jl. Tiwongso No.08 Sokopuluhan Pucakwangi,-6.8202,111.174
MIS MI Matholi`ul Falah,69854217,SD,SWASTA,A,Pucakwangi,Desa Karangrejo Kecamatan Pucakwangi Kabupaten Pati Provinsi Jawa Tengah,-6.8038,111.1351
MTS MATHOLI`UL FALAH,20364091,SD,SWASTA,B,Pucakwangi,JL. SOKO-WINONG KM 03 Desa Karangrejo Kecamatan Pucakwangi Kabupaten Pati,-6.8705,111.206
MTS MATHOLI`UL HUDA,20364088,SD,SWASTA,A,Pucakwangi,JLN. TIWONGSO TIMUR DS. SOKOPULUHAN RT.01 RW.05,-6.8153,111.1736
MTS MATHOLI`UL ULUM,20364089,SD,SWASTA,B,Pucakwangi,DESA TERTEG,-6.819,111.2176
MTS MIFTAHUL FALAH,20364092,SD,SWASTA,B,Pucakwangi,BODEH,-6.8374,111.1307
MTS MIFTAHUL HUDA,69726361,SD,SWASTA,C,Pucakwangi,DS.TRIGUNO KEC PUCAKWANGI,-6.8188,111.1361
MTS NURUL QUR`AN,20364090,SD,SWASTA,A,Pucakwangi,JL.RAYA JUWANA PUCAKWANGI KM.13 TEGALWERO PUCAKWANGI PATI,-6.79657,111.165944
MTS TARBIYATUL BANIN,20364093,SD,SWASTA,B,Pucakwangi,Jl.Sokopuluhan-Winong Km.03,-6.8191,111.1486
MTS TARBIYATUL ISLAMIYAH,20364094,SD,SWASTA,B,Pucakwangi,JL. TIWONGSO NO.08,-6.844423,111.175401
SD NEGERI BODEH,20317053,SD,NEGERI,B,Pucakwangi,Jl. Pucakwangi-Winong,-6.8365,111.1302
SD NEGERI GROGOLSARI,20317084,SD,NEGERI,B,Pucakwangi,Ds Grogolsari,-6.8038,111.1248
SD NEGERI KARANGWOTAN 01,20316299,SD,NEGERI,B,Pucakwangi,Jl. Pucakwangi - Winong Km. 07,-6.8547,111.1192
SD NEGERI KARANGWOTAN 02,20316298,SD,NEGERI,A,Pucakwangi,"Jl. Pucakwangi  - Winong Km.7,5",-6.8436,111.1164
SD NEGERI KARANGWOTAN 03,20316279,SD,NEGERI,B,Pucakwangi,Karangwotan,-6.8566,111.1221
SD NEGERI KEPOHKENCONO 01,20331711,SD,NEGERI,A,Pucakwangi,Ds.kepohkencono,-6.8356,111.1346
SD NEGERI KEPOHKENCONO 03,20316264,SD,NEGERI,B,Pucakwangi,DESA KEPOHKENCONO,-6.8325,111.1516
SD NEGERI KLETEK 01,20330931,SD,NEGERI,B,Pucakwangi,Desa Kletek,-6.8335,111.2228
SD NEGERI LUMBUNGMAS 01,20316353,SD,NEGERI,B,Pucakwangi,Jl.Pucakwangi-Todanan KM7,-6.8851,111.1858
SD NEGERI LUMBUNGMAS 02,20316352,SD,NEGERI,B,Pucakwangi,Dkh.Belukan  RT 03 RW 03,-6.8931,111.1624
SD NEGERI MENCON,20316350,SD,NEGERI,A,Pucakwangi,Ds Mencon,-6.8356,111.1913
SD NEGERI MOJOAGUNG,20330932,SD,NEGERI,B,Pucakwangi,Jl.Pucakwangi-Todanan Km.4,-6.8617,111.1759
SD NEGERI PELEMGEDE 02,20316115,SD,NEGERI,B,Pucakwangi,Ds. Pelemgede RT. 010 RW.002,-6.8279,111.1787
SD NEGERI PELEMGEDE 03,20316116,SD,NEGERI,A,Pucakwangi,Pelemgede,-6.8287,111.1798
SD NEGERI PUCAKWANGI 01,20316237,SD,NEGERI,A,Pucakwangi,Jln. Raya Pucakwangi - Winong,-6.8368,111.1692
SD NEGERI PUCAKWANGI 02,20316238,SD,NEGERI,B,Pucakwangi,"Dk.Jatilawang, RT.04/RW.02",-6.8346,111.1801
SD NEGERI PUCAKWANGI 03,20316236,SD,NEGERI,A,Pucakwangi,"Jln. Pucakwangi-Winong km 0,5",-6.8369,111.1704
SD NEGERI PUCAKWANGI 04,20316235,SD,NEGERI,B,Pucakwangi,Jln Pucakwangi - Todanan km 1,-6.8446,111.1723
SD NEGERI SITIMULYO 01,20316604,SD,NEGERI,B,Pucakwangi,DS. Sitimulyo Kec. Pucakwangi Kab. Pati,-6.8682,111.218
SD NEGERI SITIMULYO 02,20316603,SD,NEGERI,B,Pucakwangi,Dukuh Pringapus RT 02 RW 3,-6.8682,111.2102
SD NEGERI SOKOPULUHAN 01,20316595,SD,NEGERI,A,Pucakwangi,Desa Sokopuluhan Rt.01/03,-6.8119,111.1717
SD NEGERI SOKOPULUHAN 02,20316594,SD,NEGERI,B,Pucakwangi,"Desa Sukopuluhan kecamatan Puncakwangi, 59183",-6.815669,111.174383
SD NEGERI TANJUNGSEKAR,20316645,SD,NEGERI,B,Pucakwangi,Dk. Pengilon,-6.8186,111.1557
SD NEGERI TEGALWERO 01,20316614,SD,NEGERI,A,Pucakwangi,Jl.Pucakwangi-Jakenan KM5 Tegalwero,-6.8603,111.1655
SD NEGERI TERTEG 01,20316612,SD,NEGERI,B,Pucakwangi,Desa Terteg,-6.8194,111.2198
SD NEGERI TRIGUNO,20316441,SD,NEGERI,A,Pucakwangi,Dukuh Dopang,-6.8243,111.1345
SD NEGERI WATESHAJI 01,20317233,SD,NEGERI,B,Pucakwangi,"Desa Wateshaji, RT 2 RW I",-6.9157,111.1321
SMP NEGERI 1 PUCAKWANGI,20338975,SMP,NEGERI,A,Pucakwangi,Jl Raya Pucakwangi No 7,-6.8327,111.1724
SMP NEGERI 2 PUCAKWANGI,20338989,SMP,NEGERI,A,Pucakwangi,Jl Pucakwangi - Winong,-6.8327,111.1347
SMP SATU ATAP NEGERI 1 KLETEK,20362596,SMP,NEGERI,C,Pucakwangi,DESA KLETEK,-6.8335,111.223
SMP SATU ATAP NEGERI WATESHAJI,69956811,SMP,NEGERI,C,Pucakwangi,DESA WATESHAJI,-6.9159,111.128
MI ISLAMIYAH,69994036,SD,SWASTA,B,Jaken,Jl. K. Ismail Desa Sumberarum RT 03 RW 04 Kec. Jaken Kab. Pati,0.0,0.0
MI MANBA`UL HUDA,60712183,SD,SWASTA,B,Jaken,Dukuh Payaman RT 02 RW 05,-6.747,111.2159
MI NAHRUS SALAMAH,60712182,SD,SWASTA,B,Jaken,ARUMANIS,-6.7908,111.225
MI NATIJATUL ISLAM,60712184,SD,SWASTA,B,Jaken,"Sumberejo, Rt.01/Rw.06",-6.7794,111.2283
MI TARBIYATUL ISLAM,60712185,SD,SWASTA,B,Jaken,RT 04 RW 02 Desa Tamansari Kecamatan Jaken kabupaten Pati Provinsi Jawa Tengah,-6.7585,111.2357
MTS NATIJATUL ISLAM,20364065,SD,SWASTA,B,Jaken,JL JAKEN-JAKENAN KM I SUMBEREJO JAKEN,-6.7734,111.2277
MTS RAUDLATUL FALAH,69983323,SD,SWASTA,C,Jaken,"DESA RONGGO, RT 004 RW 002 KEC. JAKEN KAB. PATI",0.0,0.0
SD NEGERI BOTO,20317031,SD,NEGERI,B,Jaken,Boto,-6.8083,111.1934
SD NEGERI GENDOLO,20317139,SD,NEGERI,B,Jaken,Trikoyo,-6.7984,111.1911
SD NEGERI KEBONTURI,20316248,SD,NEGERI,B,Jaken,Kebonturi,-6.7569,111.1833
SD NEGERI LUNDO,20316331,SD,NEGERI,B,Jaken,Lundo,-6.7715,111.1992
SD NEGERI MANJANG,20316325,SD,NEGERI,B,Jaken,Desa Manjang Rt. 06 Rw. 03,-6.7694,111.2446
SD NEGERI MANTINGAN,20316322,SD,NEGERI,A,Jaken,Jalan Mantingan Kolutan Km 04,-6.81,111.2312
SD NEGERI MOJOLAMPIR,20316336,SD,NEGERI,A,Jaken,Mojolampir,-6.799,111.2083
SD NEGERI MOJOLUHUR,20316315,SD,NEGERI,B,Jaken,Jalan Jaken Jakenan Km 5,-6.7726,111.1839
SD NEGERI RONGGO 03,20316172,SD,NEGERI,B,Jaken,Jln Jaken Ronggo Km 09,-6.8388,111.2534
SD NEGERI SIDOLUHUR 01,20317281,SD,NEGERI,B,Jaken,Sidoluhur,6.7996,111.2418
SD NEGERI SIDOLUHUR 02,20316581,SD,NEGERI,A,Jaken,Dukuh Nguyangan,-6.79,111.2419
SD NEGERI SIDOMUKTI,20330938,SD,NEGERI,B,Jaken,Sidomukti,-6.7812,111.1935
SD NEGERI SRIKATON 01,20316550,SD,NEGERI,A,Jaken,jaken jakenan KM 0,-6.7768,111.2377
SD NEGERI SRIKATON 02,20316548,SD,NEGERI,B,Jaken,Srikaton,-6.7797,111.2418
SD NEGERI SRIWEDARI 01,20316547,SD,NEGERI,B,Jaken,Sriwedari,-6.7577,111.216
SD NEGERI SRIWEDARI 02,20316546,SD,NEGERI,B,Jaken,Sriwedari,-6.7579,111.2205
SD NEGERI SUKORUKUN,20316568,SD,NEGERI,A,Jaken,Sukorukun,-6.7714,111.2158
SD NEGERI SUMBERAGUNG 01,20316565,SD,NEGERI,B,Jaken,Sumberagung,-6.8043,111.2471
SD NEGERI SUMBERAGUNG 02,20316545,SD,NEGERI,B,Jaken,Sumberagung,-6.8194,111.2615
SD NEGERI SUMBERAN,20316564,SD,NEGERI,B,Jaken,Jl. Jaken - Pucakwangi KM. 05,-6.792,111.2055
SD NEGERI SUMBERARUM,20316563,SD,NEGERI,B,Jaken,Sumberarum,-6.7582,111.2251
SD NEGERI SUMBEREJO,20316562,SD,NEGERI,A,Jaken,Jln. Jaken-Jakenan Km 1 Desa Sumberejo Kec.Jaken Kab.Pati,-6.7732,111.2232
SD NEGERI TAMANSARI,20316654,SD,NEGERI,B,Jaken,Tamansari,-6.7619802,111.2386023
SD NEGERI TEGALARUM,20316618,SD,NEGERI,A,Jaken,Jalan Jaken-jakenan Km 3,-6.776,111.2125
SD NEGERI WUNGWUNG,20316457,SD,NEGERI,B,Jaken,Arumanis,-6.8368,111.2212
SMP NEGERI 1 JAKEN,20338914,SMP,NEGERI,A,Jaken,Jl Jakenan - Jaken Km. 6 Kec. Jaken Kab. Pati,-6.7757,111.2115
SMP NEGERI 2 JAKEN,20338434,SMP,NEGERI,A,Jaken,Ds Sidoluhur,-6.7993,111.2407
SMP SATU ATAP NEGERI 1 GENDOLO,20362047,SMP,NEGERI,C,Jaken,Jln Jaken - Soko Km 05,-6.7814,111.1935
MI AL ASY`ARI,60712138,SD,SWASTA,A,Batangan,DESA KUNIRAN,-6.7464,111.2384
MI KHOIRIYAH,70008994,SD,SWASTA,A,Batangan,Ds. Kedalon Rt.03/ Rw.01 Kec.Batangan Kab.Pati,0.0,0.0
MI MIFTAHUL HUDA,60712137,SD,SWASTA,A,Batangan,KOMPLEKS MASJID BESAR TLOGOMOJO BATANGAN,-6.741928,111.1726
MI MISHBAHUL FALAH,60712136,SD,SWASTA,A,Batangan,KLAYUSIWALAN,-6.7229,111.2003
MI TARBIYATUL ISLAMIYAH,69726183,SD,SWASTA,B,Batangan,Kompleks Masjid Al-Muwahhidin,-6.7076,111.2117
MI TARBIYATUL ISLAMIYAH RACI,60712135,SD,SWASTA,B,Batangan,JALAN K.ZUHRI,-6.6967,111.2117
MTS MISHBAHUL FALAH,20364040,SD,SWASTA,B,Batangan,KLAYUSIWALAN,-6.723,111.2006
MTS TARBIYATUL ISLAMIYAH,20364039,SD,SWASTA,B,Batangan,RACI,-6.725,111.1993
MTS TARBIYATUL ISLAMIYAH,20364038,SD,SWASTA,B,Batangan,Kompleks Masjid Al Muwahhidin Rt 03 Rw 02,-6.7076,111.2116
SD NEGERI BATURSARI 01,20317063,SD,NEGERI,A,Batangan,Batursari,-6.7082,111.2284
SD NEGERI BULUMULYO 01,20317005,SD,NEGERI,A,Batangan,Bulumulyo,-6.7335,111.1999
SD NEGERI BUMIMULYO 01,20317261,SD,NEGERI,A,Batangan,Bumimulyo,-6.7098,111.2023
SD NEGERI GAJAHKUMPUL,20317115,SD,NEGERI,A,Batangan,Desa Gajahkumpul,-6.7082,111.2387
SD NEGERI GUNUNGSARI 01,20317076,SD,NEGERI,A,Batangan,Gunungsari,-6.7311,111.2313
SD NEGERI JEMBANGAN 01,20330930,SD,NEGERI,A,Batangan,Jembangan,-6.7108,111.2108
SD NEGERI KEDALON 01,20316260,SD,NEGERI,A,Batangan,Kedalon,-6.7135,111.2306
SD NEGERI KEDALON 02,20316261,SD,NEGERI,A,Batangan,Kedalon,-6.7197,111.2331
SD NEGERI KEDALON 03,20316277,SD,NEGERI,A,Batangan,Kedalon,-6.7221,111.2282
SD NEGERI KETITANG WETAN 01,20316369,SD,NEGERI,A,Batangan,Jalan Juwana - Rembang Km. 06 Ds. Ketitang Wetan Batangan Pati 59186,-6.7152,111.1905
SD NEGERI KETITANG WETAN 02,20340698,SD,NEGERI,A,Batangan,Ketitang Wetan,-6.7151,111.1903
SD NEGERI KLAYUSIWALAN 02,20316365,SD,NEGERI,A,Batangan,Klayusiwalan,-6.7497,111.1993
SD NEGERI KUNIRAN 02,20316354,SD,NEGERI,B,Batangan,KUNIRAN,-6.743,111.232
SD NEGERI KUNIRAN 03,20340701,SD,NEGERI,A,Batangan,Kuniran,-6.7454,111.2334
SD NEGERI LENGKONG,20316372,SD,NEGERI,A,Batangan,Jalan Raya Juwana- Rembang Km 08,-6.7423,111.2157
SD NEGERI MANGUNLEGI 01,20316324,SD,NEGERI,A,Batangan,Mangunlegi,-6.7056,111.2222
SD NEGERI NGENING 01,20316164,SD,NEGERI,A,Batangan,Ngening,-6.7218,111.1787
SD NEGERI PECANGAAN,20316121,SD,NEGERI,A,Batangan,Pecangaan,-6.7441,111.2337
SD NEGERI RACI 01,20316180,SD,NEGERI,A,Batangan,Jln Raya Juwana-rembang Km 5,-6.7225,111.2291
SD NEGERI SUKOAGUNG,20316539,SD,NEGERI,B,Batangan,Sukoagung,-6.7461,111.1917
SD NEGERI TLOGOMOJO,20316626,SD,NEGERI,B,Batangan,Tlogomojo,-6.7391,111.1733
SD NEGERI TOMPOMULYO 02,20340709,SD,NEGERI,A,Batangan,Tompomulyo,-6.7406,111.21
SMP IBS NURUL FIKRI 01 PATI,70056896,SMP,SWASTA,Belum Terakreditasi,Batangan,Jl. Juwana Rembang Km. 05,0.0,0.0
SMP NEGERI 1 BATANGAN,20338959,SMP,NEGERI,A,Batangan,"Jl. Raya Batangan - Jaken Km.1,5 Pati",-6.7202,111.2277
SMP NEGERI 2 BATANGAN,20338862,SMP,NEGERI,A,Batangan,Ds. Bumimulyo,-6.7129,111.2013
MI AL FATTAH,60712194,SD,SWASTA,A,Juwana,Jl. Ki Dukut Gang Merpati Ds. Dukutalit Kec. Juwana,-6.7096,111.136
MI ANNUR BUMI DAMAI,70033161,SD,SWASTA,Belum Terakreditasi,Juwana,Dk. Karangtawang 02/04 Ds. Karangrejo,-6.738,111.1484
MI MATHOLI`UL FALAH,60712192,SD,SWASTA,A,Juwana,LANGGENHARJO,-6.7022,111.1214
MI NURUL HUDA,60712195,SD,SWASTA,B,Juwana,JL. KRAPYAK NO.9 BAJOMULYO JUWANA PATI,-6.7068,111.1532
MI TARBIYATUSH SHIBYAN,60712193,SD,SWASTA,B,Juwana,MARGOMULYO,-6.7061,111.105
MTS AL FATTAH,70008774,SD,SWASTA,B,Juwana,JL. MANGKUDIPURO GANG PERKUTUT,-6.7143,111.131
MTS MATHOLI`UL FALAH,20364067,SD,SWASTA,B,Juwana,RT.10/RW.02,-6.7016,111.1218
MTS ROUDLATUL MA`ARIF,20364068,SD,SWASTA,B,Juwana,Jl. Juwana - Tayu Km. 11 Ds. kadilangu RT. 004 Rw. 001 Kec. Trangkil Kab. Pati,-6.6451,111.0854
MTS TARBIYATUSH SHIBYAN,69726362,SD,SWASTA,B,Juwana,RT. 02 RW. 03,-6.7055,111.1055
SD ISLAM TERPADU UMAR BIN KHATHAB,20330135,SD,SWASTA,A,Juwana,Jl. Juwana - Jakenan Km. 3 Juwana,-6.7212,111.1565
SD IT NURUL FIKRI,69957062,SD,SWASTA,B,Juwana,Jl. Komodo No. 128 Kauman Juwana,-6.7162,111.1427
SD IT YAUMI FATIMAH,20362663,SD,SWASTA,A,Juwana,JL. TAMBAK NO. 37 BAJOMULYO,-6.7062,111.1493
SD NEGERI AGUNG MULYO,20317242,SD,NEGERI,A,Juwana,Jl Turonggo No 173a,-6.6926,111.1283
SD NEGERI BAJOMULYO,20317048,SD,NEGERI,A,Juwana,Jl.hangtuah No.6,-6.7106,111.1464
SD NEGERI BAKARAN KULON 01,20317047,SD,NEGERI,A,Juwana,Jl.siswa No.11,-6.706,111.1288
SD NEGERI BAKARAN KULON 03,20317045,SD,NEGERI,A,Juwana,Desa Bakaran Kulon,-6.7072,111.1245
SD NEGERI BAKARAN WETAN 01,20317044,SD,NEGERI,A,Juwana,Ds Bakaran Wetan,-6.6813,111.1304
SD NEGERI BAKARAN WETAN 03,20317042,SD,NEGERI,A,Juwana,Jl.kh Dewantoro,-6.703,111.1321
SD NEGERI BENDAR,20317060,SD,NEGERI,A,Juwana,Jl. Raya Juwana Rembang Km2,-6.6941,111.1568
SD NEGERI BRINGIN,20317009,SD,NEGERI,A,Juwana,Jl.juwana-Jakenan km 5,-6.6864,111.1561
SD NEGERI BUMIREJO,20316997,SD,NEGERI,B,Juwana,Jl.pencikan,-6.702,111.151
SD NEGERI DOROPAYUNG 01,20317020,SD,NEGERI,A,Juwana,Jl. Alon-alun No 1a,-6.6809,111.1466
SD NEGERI DOROPAYUNG 02,20317019,SD,NEGERI,A,Juwana,Jln. MAKAM DOROPAYUNG,-6.7229,111.1444
SD NEGERI DUKUTALIT 01,20317015,SD,NEGERI,A,Juwana,Jl.Mangkudipuro,-6.7063,111.136
SD NEGERI DUKUTALIT 02,20317016,SD,NEGERI,A,Juwana,Jl. Tayu Utara Km.02,-6.7096,111.1313
SD NEGERI GADINGREJO,20317118,SD,NEGERI,A,Juwana,Jalan Raya Juwana - Pati Km.4,-6.7296,111.1048
SD NEGERI GENENGMULYO 01,20317138,SD,NEGERI,A,Juwana,Jl Senawi,-6.6865,111.1213
SD NEGERI GENENGMULYO 02,20317137,SD,NEGERI,A,Juwana,Jl. Lapangan Trigunting,-6.6868,111.1226
SD NEGERI GROWONG KIDUL 02,20317083,SD,NEGERI,A,Juwana,Jl.ki Hajar Dewantara No.607,-6.7079,111.1404
SD NEGERI GROWONG LOR 01,20317082,SD,NEGERI,A,Juwana,Jl. Ki Hajar Dewantoro,-6.7183,111.1432
SD NEGERI JEPURO,20317092,SD,NEGERI,B,Juwana,Jl. Jolotundo Desa Jepuro,-6.7295,111.1456
SD NEGERI KARANG,20316280,SD,NEGERI,A,Juwana,Jln. Kuniran - Ketip Km. 03. Desa Karang Juwana,-6.7328,111.1586
SD NEGERI KARANGREJO 01,20316311,SD,NEGERI,A,Juwana,JALAN TEMBUS JUWANA- KARANG KM.3,-6.7323,111.1553
SD NEGERI KAUMAN 01,20316259,SD,NEGERI,A,Juwana,Jl P Diponegoro No 2,-6.7187,111.146
SD NEGERI KAUMAN 02,20316258,SD,NEGERI,A,Juwana,Jl. Wr Supratman,-6.7028,111.1454
SD NEGERI KEBONSAWAHAN 02,20316249,SD,NEGERI,A,Juwana,Jl. Sunan Ngerang 31 B,-6.7194,111.146
SD NEGERI KETIP,20316388,SD,NEGERI,A,Juwana,Jl. Juwana - Kuniran Km. 5,-6.7169,111.1231
SD NEGERI KUDUKERAS 01,20316358,SD,NEGERI,A,Juwana,Jalan PN Bajo,-6.7134,111.1509
SD NEGERI LANGGENHARJO 01,20316376,SD,NEGERI,A,Juwana,Jl Juwana-trangkil Km 4,-6.7011,111.1198
SD NEGERI LANGGENHARJO 02,20316375,SD,NEGERI,B,Juwana,jln.Bima RT 05 RW 02,-6.6786,111.1493
SD NEGERI MARGOMULYO 01,20316319,SD,NEGERI,A,Juwana,Dukuh Gempol,-6.7038,111.1599
SD NEGERI MARGOMULYO 02,20316329,SD,NEGERI,A,Juwana,Ds Margomulyo,-6.7052,111.1079
SD NEGERI MINTOMULYO,20316346,SD,NEGERI,A,Juwana,Mintomulyo,-6.7253,111.1284
SD NEGERI PEKUWON,20316117,SD,NEGERI,A,Juwana,Jln Juana - Jakenan Km 3,-6.7261,111.1577
SD NEGERI SEJOMULYO 02,20316194,SD,NEGERI,A,Juwana,Ds Sejomulyo Rt 1/1,-6.7429,111.1412
SD NEGERI TLUWAH,20316636,SD,NEGERI,B,Juwana,Jl Tembusan Juwana Karang Km 5,-6.7187,111.1483
SD NEGERI TRIMULYO 02,20338856,SD,NEGERI,A,Juwana,Jl. Juwana - Rembang Km. 3,-6.7133,111.1629
SD RAJAWALI,20317265,SD,SWASTA,A,Juwana,Jl. Sunan Ngerang No. 234 RT 1 RW 2,-6.713,111.1488
SDIT AL MADINAH,69975868,SD,SWASTA,B,Juwana,Jl. Raya Juwana Rembang Km. 02,-6.7099433,111.155462
SMP ISLAM JUWANA,20338949,SMP,SWASTA,B,Juwana,Jl. Diponegoro No.01 Juwana,-6.7332,111.147
SMP IT UTSMAN BIN AFFAN,69774548,SMP,SWASTA,B,Juwana,JL. JUWANA - JAKENAN KM 03 JUWANA,-6.7216,111.1562
SMP KANISIUS JUWANA,20338953,SMP,SWASTA,A,Juwana,Jl.Sunan Ngerang 44 Juwana,-6.7125,111.1481
SMP NEGERI 1 JUWANA,20339110,SMP,NEGERI,A,Juwana,Jl Silugonggo 46 Juwana,-6.7152,111.1515
SMP NEGERI 2 JUWANA,20338986,SMP,NEGERI,A,Juwana,"Jl Juwana -Tayu, Km 2 Juwana",-6.71,111.131
SMP NEGERI 3 JUWANA,20338866,SMP,NEGERI,A,Juwana,Jl. Hangtuah Juwana,-6.7127,111.1505
SMP NEGERI 4 JUWANA,20338997,SMP,NEGERI,A,Juwana,Jl. Raya Tluwah - Juwana,-6.7316,111.1489
MI MIFTAHUL FALAH,60712190,SD,SWASTA,B,Jakenan,JL. JAKENAN - JUWANA KM 01  DESA DUKUHMULYO,-6.7545,111.1517
MI MIFTAHUL HUDA,60712187,SD,SWASTA,A,Jakenan,DS.SIDOMULYO KEC.JAKENAN KAB.PATI,-6.774811,111.170325
MI MIFTAHUL HUDA,60712191,SD,SWASTA,B,Jakenan,DS. TONDOMULYO KEC. JAKENAN KAB. PATI,-6.741,111.1164
MI NABA`UL ULUM,60712189,SD,SWASTA,A,Jakenan,DESA PULUHANTENGAH RT 01 RW 02 KECAMATAN JAKENAN,-6.7703,111.1507
MI TARBIYATUL ISLAMIYAH,60712186,SD,SWASTA,B,Jakenan,Jl. Jakenan-Winong Km. 5,-6.7637,111.1135
MI TARBIYATUSY SYUBBAN,60712188,SD,SWASTA,A,Jakenan,Jalan Masjid Kijingan Kalimulyo,-6.7471,111.117
MTS MIFTAHUL FALAH,69726380,SD,SWASTA,B,Jakenan,DS.DUKUHMULYO KEC JAKENAN,-6.776,111.1552
MTS MIFTAHUL HUDA,20364066,SD,SWASTA,B,Jakenan,SIDOMULYO JAKENAN PATI,-6.775,111.1702
MTS TARBIYATUL ISLAMIYAH,69725107,SD,SWASTA,A,Jakenan,JALAN JAKENAN WINONG KM. 5,-6.7642,111.1137
SD NEGERI BUNGASREJO,20316995,SD,NEGERI,A,Jakenan,Ds. Bungasrejo Rt. 1 Rw. II,-6.7462,111.1288
SD NEGERI DUKUHMULYO 02,20317279,SD,NEGERI,A,Jakenan,"Jln. Jakenan-Juwana Km 1,5",-6.752,111.1554
SD NEGERI GLONGGONG,20317128,SD,NEGERI,A,Jakenan,Glonggong,-6.7586,111.1235
SD NEGERI JAKENAN,20317070,SD,NEGERI,A,Jakenan,"Jln. Jakenan - Jaken . Km 01, Jakenan",-6.7614,111.166
SD NEGERI JATISARI,20317099,SD,NEGERI,A,Jakenan,Desa Jatisari,-6.7893,111.1632
SD NEGERI KALIMULYO 01,20316286,SD,NEGERI,A,Jakenan,Jln. Jakenan - Winong . Km 4,-6.7602,111.1179
SD NEGERI KALIMULYO 02,20317274,SD,NEGERI,A,Jakenan,DS. KALIMULYO Rt.04 Rw.01 KEC.JAKENAN KAB.PATI,-6.7511,111.1171
SD NEGERI KARANGREJO,20316312,SD,NEGERI,A,Jakenan,Karangrejolor,-6.7667,111.1577
SD NEGERI KARANGROWO,20316309,SD,NEGERI,A,Jakenan,Karangrowo,-6.7561,111.0929
SD NEGERI KEDUNGMULYO,20316272,SD,NEGERI,A,Jakenan,Kedungmulyo,-6.7697,111.0769
SD NEGERI MANTINGANTENGAH,20316321,SD,NEGERI,A,Jakenan,Mantingantengah,-6.7531,111.1454
SD NEGERI NGASTOREJO,20316135,SD,NEGERI,B,Jakenan,Ngastorejo,-6.7562,111.0836
SD NEGERI PLOSOJENAR,20316216,SD,NEGERI,A,Jakenan,Plosojenar,-6.7507,111.1766
SD NEGERI PULUHANTENGAH,20316231,SD,NEGERI,A,Jakenan,Jln. Jakenan - Winong. Km 1,-6.7616,111.15
SD NEGERI SEMBATURAGUNG 02,20317231,SD,NEGERI,A,Jakenan,Jln. Jakenan - Winong . Km 3,-6.7585,111.1358
SD NEGERI SENDANGSOKO,20316608,SD,NEGERI,A,Jakenan,Sendangsoko,-6.7789,111.0988
SD NEGERI SIDOARUM,20316586,SD,NEGERI,A,Jakenan,DS SIDOARUM,-6.7734,111.1003
SD NEGERI SIDOMULYO 02,20316577,SD,NEGERI,A,Jakenan,Desa Sidomulyo,-6.5864,110.9091
SD NEGERI SIDOMULYO 03,20316576,SD,NEGERI,B,Jakenan,Sidomulyo RT 05/ RW 02,-6.7757,111.1649
SD NEGERI SONOREJO,20316572,SD,NEGERI,A,Jakenan,Sonorejo,-6.7656,111.0954
SD NEGERI TAMBAHMULYO 01,20316689,SD,NEGERI,A,Jakenan,Jln Jakenan - Winong  Km 06,-6.7742,111.1076
SD NEGERI TAMBAHMULYO 02,20316690,SD,NEGERI,B,Jakenan,Desa Tambahmulyo,-6.7717,111.1077
SD NEGERI TANJUNGSARI,20316676,SD,NEGERI,A,Jakenan,TANJUNGSARI,-6.7556,111.1631
SD NEGERI TLOGOREJO,20316627,SD,NEGERI,A,Jakenan,Tlogorejo RT 05 RW 02,-6.7630611,111.105704
SD NEGERI TONDOKERTO,20316631,SD,NEGERI,A,Jakenan,Tondokerto,-6.7702,111.134
SD NEGERI TONDOMULYO,20316630,SD,NEGERI,A,Jakenan,Tondomulyo,-6.7678,111.1133
SDIT KHADIJAH JAKENAN,70011327,SD,SWASTA,A,Jakenan,RT. 03 RW. 02,-7.0348,107.5624
SMP IT ROUDLATUL MUTTAQIN,69985122,SMP,SWASTA,B,Jakenan,Jl. Jakenan - Jaken Km. 04 Plosojenar Kec. Jakenan Kab. Pati,-6.7495,111.1774
SMP NEGERI 1 JAKENAN,20339114,SMP,NEGERI,A,Jakenan,"Jl Jakenan-Juwana,No. 24",-6.7588,111.155
SMP NEGERI 2 JAKENAN,20338985,SMP,NEGERI,A,Jakenan,Jl. Ds Glonggong,-6.7552,111.1261
MI AL HIDAYAH,60712229,SD,SWASTA,A,Pati,JL.TAMAN PAHLAWAN Desa Puri Rt.02 Rw.06 PATI,-6.7503,111.0249
MI AL KHOLIFAH,69956218,SD,SWASTA,B,Pati,Ds Ngepungrojo Desa Ngepungrojo Kec Pati,0.0,0.0
MI MANBAUL ULUM,60712230,SD,SWASTA,A,Pati,JL. RAYA PATI-JUANA KM. 07,-6.76969,111.040286
MI MUHAMMADIYAH,60712228,SD,SWASTA,A,Pati,TAMBAHARJO,-6.7224,111.0545
MTS Al Isti`anah Boarding School (MTs-IBS),69851407,SD,SWASTA,B,Pati,Jl. Ronggo Warsito Gang Nangka Rt.006/002,-6.7571,111.0271
MTS AL KHOLIFAH,20364086,SD,SWASTA,B,Pati,NGEPUNGROJO RT.04/RW.07 PATI,-6.7219,111.0743
MTS ISLAM PATI,20364085,SD,SWASTA,B,Pati,JL. KH WAHID HASYIM NO.3,-6.7549,111.0368
MTS MANBAUL ULUM,20364084,SD,SWASTA,B,Pati,JL. RAYA PATI JUWANA KM.07,-6.760158,111.035144
MTS WAHID HASYIM,20364087,SD,SWASTA,B,Pati,PATI,-6.7186,111.0543
SD HARAPAN BANGSA,20360118,SD,SWASTA,A,Pati,Jalan Supriyadi III RT 5/RW 4,-6.7551,111.0356
SD INTEGRAL HIDAYATULLAH,69824826,SD,SWASTA,A,Pati,JALAN NANAS RT 7/2 PLANGITAN,-6.756,111.0226
SD ISLAM AL AZHAR 48 PATI,69946898,SD,SWASTA,A,Pati,Jalan Al Azhar nomor 1 Desa Winong RT.03 RW. 07,-6.7368,111.0246
SD ISLAM AL HUDA,20317162,SD,SWASTA,B,Pati,Jln Raya Pati Tayu Km 04,-6.7142,111.0553
SD ISLAM KAUMAN,20317161,SD,SWASTA,A,Pati,Jl Kamandowo Gang Sunan Kalijaga No 87,-6.7539,111.0371
SD ISLAM TERPADU YAUMI FATIMAH,20330927,SD,SWASTA,A,Pati,Jl. P. Diponegoro No. 155 Pati,-6.7488,111.0439
SD KANISIUS PATI 01,20317268,SD,SWASTA,A,Pati,JL. P. SUDIRMAN NO 152 PATI,-6.7533,111.038
SD KANISIUS PATI 02,20317267,SD,SWASTA,A,Pati,Jln Panglima Sudirman No 152 Pati,-6.7533,111.0381
SD KRISTEN TERANG BAGI BANGSA,20354181,SD,SWASTA,A,Pati,JALAN PENJAWI NO. 29 B RANDUKUNING,-6.7483,111.0367
SD MUHAMMADIYAH,20340994,SD,SWASTA,A,Pati,JAL PATI KAYEN KM. 02,-6.7733,111.0367
SD NEGERI BLARU 02,20317056,SD,NEGERI,A,Pati,Jl Mr Iskandar Gang 3 Pati,-6.7617,111.0405
SD NEGERI DENGKEK 01,20317022,SD,NEGERI,A,Pati,Jl Ki Juru Mertani No.53,-6.7576,111.0551
SD NEGERI GAJAHMATI,20317114,SD,NEGERI,A,Pati,Jl Kiai Pupus No 85,-6.7611,111.0446
SD NEGERI GERITAN,20317134,SD,NEGERI,A,Pati,Jln Raya Pati - Juwana Km 2,-6.7511,111.0581
SD NEGERI KALIDORO,20316289,SD,NEGERI,A,Pati,Jl P Sudirman,-6.752,111.0498
SD NEGERI KUTOHARJO 03,20316384,SD,NEGERI,A,Pati,Jl Raya Pati Tayu Km 2,-6.7583,111.0435
SD NEGERI MULYOHARJO 01,20316146,SD,NEGERI,A,Pati,Jl. Pati - Tayu Km 3,-6.7281,111.0466
SD NEGERI MULYOHARJO 02,20316145,SD,NEGERI,B,Pati,JL. RAYA PATI - TAYU KM. 3,-6.7259,111.0433
SD NEGERI MUSTOKOHARJO,20316144,SD,NEGERI,A,Pati,Jalan Pati Gabus Km 1,-6.7376,111.051
SD NEGERI NGARUS 02,20316136,SD,NEGERI,A,Pati,Jl Kolonel Sugiyono 11 Pati,-6.7434,111.034
SD NEGERI NGEPUNGROJO 01,20316162,SD,NEGERI,A,Pati,Ngepungrojo,-6.7583,111.0571
SD NEGERI PANJUNAN 02,20316105,SD,NEGERI,A,Pati,Jalan Raya Pati - Kayen,-6.7668,111.0392
SD NEGERI PARENGGAN 01,20316104,SD,NEGERI,A,Pati,Jl. Diponegoro No. 143,-6.7577,111.0419
SD NEGERI PATI KIDUL 01,20316095,SD,NEGERI,A,Pati,Jl P Sudirman No 96,-6.7516,111.0321
SD NEGERI PATI KIDUL 03,20316097,SD,NEGERI,A,Pati,Jl. Syeh Jangkung 183,-6.7565,111.0305
SD NEGERI PATI KIDUL 05,20316099,SD,NEGERI,A,Pati,Jln Syeh Jangkung Gang V No 20 Pati,-6.7595,111.0363
SD NEGERI PATI LOR 01,20316101,SD,NEGERI,A,Pati,Jl. RA. Kartini No 22A Pati,-6.7517,111.0398
SD NEGERI PATI LOR 02,20316113,SD,NEGERI,A,Pati,Jl Ra Kartini No. 22b Pati,-6.7513,111.0397
SD NEGERI PATI LOR 05,20316131,SD,NEGERI,A,Pati,JALAN RA KARTINI NO: 22 E,-6.7507,111.04
SD NEGERI PATI WETAN 01,20316130,SD,NEGERI,A,Pati,Jl Tondonegoro No 7,-6.7519,111.0418
SD NEGERI PAYANG 03,20316122,SD,NEGERI,B,Pati,Payang,-6.727,111.0565
SD NEGERI PURI 02,20316227,SD,NEGERI,A,Pati,Jln Taman Pahlawan 17 Pati,-6.7513,111.0243
SD NEGERI PURI 03,20316226,SD,NEGERI,A,Pati,Jl Ronggowarsito No 2 PATI,-6.752,111.0273
SD NEGERI PURWOREJO 01,20316183,SD,NEGERI,A,Pati,Jl Pati Juwana Km 8 Pati,-6.7423,111.0851
SD NEGERI PURWOREJO 02,20330934,SD,NEGERI,A,Pati,Purworejo,-6.7291,111.0845
SD NEGERI SARIREJO 04,20316197,SD,NEGERI,A,Pati,Desa sarirejo Rt 04 / Rw I,-6.7464,111.0474
SD NEGERI SEMAMPIR,20316191,SD,NEGERI,B,Pati,Jl Roro Mendut No 2,-6.7566,111.0486
SD NEGERI SIDOHARJO,20316585,SD,NEGERI,A,Pati,Jl Ki Juru Mertani 18 Pati,-6.7543,111.053
SD NEGERI SIDOKERTO 01,20316584,SD,NEGERI,B,Pati,Jl Sunan Kalijogo No 396,-6.7525,111.0343
SD NEGERI SIDOKERTO 03,20316582,SD,NEGERI,A,Pati,Sidokerto,-6.7314,111.0604
SD NEGERI SINOMAN,20316575,SD,NEGERI,A,Pati,Sinoman,-6.7189,111.0982
SD NEGERI SUGIHARJO 02,20316543,SD,NEGERI,A,Pati,Jl. Raya Pati-Juwana Km. 4 Ds. Sugiharjo Kec. Pati,-6.7486,111.0683
SD NEGERI TAMBAHARJO 01,20316646,SD,NEGERI,A,Pati,Jl Raya Pati Tayu Km 04,-6.7204,111.0539
SD NEGERI TAMBAHARJO 02,20316672,SD,NEGERI,A,Pati,Jl.Pati- Tayu Km.4,-6.7323,111.0537
SD NEGERI TAMBAHSARI,20316688,SD,NEGERI,A,Pati,Tambahsari,-6.7263,111.066
SD NEGERI WIDOROKANDANG,20316427,SD,NEGERI,A,Pati,"Jl Raya Pati-Juana Km 4,5",-6.7407,111.0771
SD NEGERI WINONG 01,20316432,SD,NEGERI,A,Pati,Jl. Kolonel Sunandar Gang III,-6.7458,111.0302
SDIT NUR MADINAH,70012678,SD,SWASTA,A,Pati,RT 7 RW 1,-6.7345,111.0354
SDQT IBNU RUSLAN,70039987,SD,SWASTA,Belum Terakreditasi,Pati,Jl. Taman Makam Pahlawan,-6.7459,111.0218
SEKOLAH DASAR ISLAM TERPADU (SDIT) NURUL FIKRI,70053149,SD,SWASTA,Belum Terakreditasi,Pati,Desa Ngepungrojo Rt 4 Rw 1,0.0,0.0
SMP ISLAM AL AZHAR  46,69985146,SMP,SWASTA,B,Pati,Dk. NGAGUL RT 03 RW 07,-6.736798,111.024671
SMP KANISIUS PATI,20316509,SMP,SWASTA,A,Pati,Jl. P. Sudirman No.152,-6.7522,111.0353
SMP KRISTEN TERANG BAGI BANGSA,69948624,SMP,SWASTA,B,Pati,JL.PENJAWI NO 29 B,-6.7457,111.0382
SMP MUHAMMADIYAH 1 PATI,20338955,SMP,SWASTA,B,Pati,Jln Ra Kartini No 14,-6.756,111.069
SMP NASIONAL,20338963,SMP,SWASTA,C,Pati,Jl Kha Dahlan,-6.7387,111.0448
SMP NEGERI 1 PATI,20338974,SMP,NEGERI,A,Pati,Jl Pemuda No 287 Pati,-6.7541,111.046
SMP NEGERI 2 PATI,20338864,SMP,NEGERI,A,Pati,Jl. Ronggowarsito Gg. VII Pati 59113,-6.7562,111.027
SMP NEGERI 3 PATI,20338867,SMP,NEGERI,A,Pati,Jl Kol Sugiyono No 17 Pati,-6.7425417,111.0314955
SMP NEGERI 4 PATI,20338868,SMP,NEGERI,A,Pati,Jl.P.Sudirman No. 18 Pati,-6.7515,111.0267
SMP NEGERI 5 PATI,20338869,SMP,NEGERI,A,Pati,Jalan P. Sudirman,-6.751,111.0299
SMP NEGERI 6 PATI,20338870,SMP,NEGERI,A,Pati,Jl.kustin,-6.7327,111.0331
SMP NEGERI 7 PATI,20339113,SMP,NEGERI,A,Pati,Ds Mulyoharjo,-6.7321,111.0523
SMP NEGERI 8 PATI,20338941,SMP,NEGERI,A,Pati,Jl RA Kartini No 1,-6.7503,111.0379
MI MIFTAHUL HUDA,60712165,SD,SWASTA,B,Gabus,RT 002 RW 001,-6.819079,111.031487
MI SIROJUL HUDA,60712164,SD,SWASTA,A,Gabus,JL. PATI KAYEN KM. 11,-6.841,110.9955
MI TARBIYATUL ISLAMIYAH,60712163,SD,SWASTA,A,Gabus,TANJUNGANOM,-6.8368267,111.0637093
MTS ABADIYAH,69726363,SD,SWASTA,A,Gabus,DS.KURYOKALANGAN KEC GABUS,-6.832,111.0343
MTS MIFTAHUL HUDA,20364051,SD,SWASTA,A,Gabus,SUGIHREJO,-6.8219,111.0401
MTS NURUL KHOSYI`IN,20364050,SD,SWASTA,B,Gabus,JL PATI-KAYEN KM 7,-6.8182,111.0191
MTS TARBIYATUL ISLAMIYAH,20364049,SD,SWASTA,B,Gabus,JL. TANJUNGANOM - PONDOK KM 01,-6.8367,111.0635
MTS TUAN SOKOLANGU,20364048,SD,SWASTA,A,Gabus,MOJOLAWARAN,-6.8279,111.0373
SD IT LENTERA HATI,20364882,SD,SWASTA,A,Gabus,DESA TANJUNGANOM RT 01 RW 02,-6.828,111.0595
SD NEGERI BABALAN,20317236,SD,NEGERI,A,Gabus,Desa Babalan,-6.7964,111.0479
SD NEGERI BANJARSARI 01,20317035,SD,NEGERI,A,Gabus,Jl Pati Gabus Km 3,-6.7785,111.0555
SD NEGERI BANJARSARI 02,20317034,SD,NEGERI,A,Gabus,DESA BANJARSARI,-6.774,111.0575
SD NEGERI BOGOTANJUNG 01,20317052,SD,NEGERI,A,Gabus,Desa Bogotanjung,-6.8403,111.0246
SD NEGERI BOGOTANJUNG 02,20317280,SD,NEGERI,A,Gabus,Desa Bogotanjung,-6.8401,111.0241
SD NEGERI GABUS 01,20317259,SD,NEGERI,A,Gabus,Jl Gabus Tlogoayu,-6.8357,111.052
SD NEGERI GABUS 04,20317221,SD,NEGERI,A,Gabus,"Jl Gabus Tambakromo, Km.0",-6.806,111.052
SD NEGERI GEBANG,20317110,SD,NEGERI,A,Gabus,DESA GEBANG RT.03 RW.02,-6.8078,111.0301
SD NEGERI GEMPOLSARI 01,20317124,SD,NEGERI,A,Gabus,Jl Pati Gabus Km 5,-6.8278,111.0367
SD NEGERI KARABAN 01,20316285,SD,NEGERI,A,Gabus,Jl.pati-kayen Km.10,-6.838,111.005
SD NEGERI KORIPANDRIYO,20316362,SD,NEGERI,Belum Terakreditasi,Gabus,JLN PATI-GABUS KM 06,0.0,0.0
SD NEGERI KURYOKALANGAN 01,20316371,SD,NEGERI,Belum Terakreditasi,Gabus,Jl Gabus -tlogoayu Km 2,0.0,0.0
SD NEGERI KURYOKALANGAN 02,20316387,SD,NEGERI,A,Gabus,Ds Kuryokalangan,-6.8037,111.0361
SD NEGERI MINTOBASUKI 02,20316347,SD,NEGERI,A,Gabus,Ds.Mintobasuki,-6.8245,111.0345
SD NEGERI MOJOLAWARAN,20316335,SD,NEGERI,Belum Terakreditasi,Gabus,DESA MOJOLAWARAN,0.0,0.0
SD NEGERI PENANGGUNGAN,20316221,SD,NEGERI,A,Gabus,JL. GABUS-PATI KM.02,-6.8151,111.051
SD NEGERI PLOSOMALANG 01,20316214,SD,NEGERI,A,Gabus,Ds Kosekan Rt 1/1,-6.8364,111.0238
SD NEGERI PLOSOMALANG 02,20316213,SD,NEGERI,A,Gabus,Dk. PLOSOMALANG,-6.8148,111.0215
SD NEGERI PLUMBUNGAN,20316211,SD,NEGERI,A,Gabus,Desa Plumbungan,-6.8043,111.0437
SD NEGERI SAMBIREJO 01,20316186,SD,NEGERI,A,Gabus,DS. SAMBIREJO RT 02 RW 03 Kecamatan Gabus Kabupaten Pati,-6.8183,111.0251
SD NEGERI SOKO,20316598,SD,NEGERI,A,Gabus,Jalan Soko - Koripondriyo Km.1 Desa Soko 2/I,-6.7982,111.0653
SD NEGERI SUGIHREJO 01,20316540,SD,NEGERI,B,Gabus,Ds Sugihrejo,-6.8822,111.0419
SD NEGERI SUGIHREJO 02,20316542,SD,NEGERI,A,Gabus,Ds Sugihrejo Rt.1/5,-6.8299,111.0394
SD NEGERI SUGIHREJO 03,20316541,SD,NEGERI,B,Gabus,Ds Sugihrejo,-6.8193,111.0401
SD NEGERI SUNGGINGWARNO 01,20316670,SD,NEGERI,A,Gabus,Ds Sunggingwarno,-6.8136,111.062
SD NEGERI SUNGGINGWARNO 02,20316659,SD,NEGERI,A,Gabus,DESA SUNGGINGWARNO,-6.8123,111.0557
SD NEGERI TAMBAHMULYO 02,20330942,SD,NEGERI,A,Gabus,DESA TAMBAHMULYO,-6.823,111.0507
SD NEGERI TANJANG,20316683,SD,NEGERI,A,Gabus,Ds Tanjang,-6.792,111.0388
SD NEGERI TANJUNGANOM 01,20316682,SD,NEGERI,A,Gabus,Jl Gabus Winong Km 1,-6.8334,111.0586
SD NEGERI TANJUNGANOM 02,20316681,SD,NEGERI,A,Gabus,Ds Tanjung Anom,-6.8366,111.0633
SD NEGERI TLOGOAYU,20316610,SD,NEGERI,A,Gabus,Jl Pati Kayen Km 9,-6.8268,111.0158
SD NEGERI WUWUR 01,20316455,SD,NEGERI,A,Gabus,Ds.wuwur,-6.8427,110.9966
SMP NEGERI 1 GABUS,20338972,SMP,NEGERI,A,Gabus,Jl. Gabus - Tlogoayu Km. 01,-6.831,111.0475
SMP NEGERI 2 GABUS,20338982,SMP,NEGERI,A,Gabus,Jl. Raya Pati-Gabus Km.5,-6.7931,111.0601
SMP NU KARABAN,69867937,SMP,SWASTA,B,Gabus,JALAN RAYA PATI PURWODADI KM. 10 DS. KARABAN KEC. GABUS KAB. PATI,-6.822451,111.009813
MI MIFTAHUL ULUM,60712209,SD,SWASTA,B,Margorejo,JL. PATI - BANYUURIP KM.8,-6.7867,110.984
MI TERPADU AL MADANI,69977297,SD,SWASTA,B,Margorejo,JL. PATI-KUDUS KM 9,0.0,0.0
MIS MIFTAHUL HUDA,60712208,SD,SWASTA,A,Margorejo,SUKOBUBUK,-6.744,110.9538
MTS ISLAM,20364078,SD,SWASTA,B,Margorejo,JL. RAYA PATI-KUDUS KM.09,-6.7899,110.9752
MTS NURUL HIKMAH,20364076,SD,SWASTA,B,Margorejo,BANYUURIP,-6.7333,110.9836
MTSS AL-IKHLAS,20364077,SD,SWASTA,C,Margorejo,Desa Sukobubuk Rt 03 Rw 01,-6.7431,110.9527
SD ISLAM TERPADU  ABU BAKAR ASH SHIDIQ,20317165,SD,SWASTA,A,Margorejo,Jl. Soewondo No.1 Sekarkurung,-6.7425,111.0176
SD NEGERI BADEGAN 02,20317235,SD,NEGERI,A,Margorejo,Jl Raya Pati Kudus Km 4,-6.7641,111.0037
SD NEGERI BANYUURIP 02,20330928,SD,NEGERI,A,Margorejo,Jl Banyuurip Km 7,-6.7355,110.986
SD NEGERI BUMIREJO 01,20316996,SD,NEGERI,A,Margorejo,Ds Bumirejo,-6.7941,110.98
SD NEGERI BUMIREJO 02,20317287,SD,NEGERI,A,Margorejo,Ds Bumirejo,-6.7659,110.988
SD NEGERI DADIREJO 02,20317025,SD,NEGERI,A,Margorejo,Dadirejo,-6.7685,111.0284
SD NEGERI JAMBEAN 02,20317085,SD,NEGERI,A,Margorejo,Ds Jambean Kidul,-6.7781,110.9836
SD NEGERI JENGGOLO 03,20317095,SD,NEGERI,C,Margorejo,Pati,-6.7469,110.981
SD NEGERI JIMBARAN,20317090,SD,NEGERI,A,Margorejo,DESA JIMBARAN RT. 01 RW. II,-6.7433,110.9925
SD NEGERI LANGENHARJO 02,20316379,SD,NEGERI,A,Margorejo,Desa Langenharjo,-6.7783,111.0324
SD NEGERI LANGSE 02,20316374,SD,NEGERI,B,Margorejo,Ds Langse,-6.7604,110.9999
SD NEGERI MARGOREJO 02,20316316,SD,NEGERI,A,Margorejo,Ds Margorejo Rt 02 Rw 02,-6.7671,111.0108
SD NEGERI METARAMAN,20316349,SD,NEGERI,A,Margorejo,Ds.metaraman,-6.7423,111.0037
SD NEGERI MUKTIHARJO 01,20316149,SD,NEGERI,A,Margorejo,Muktiharjo,-6.7338,111.0138
SD NEGERI MUKTIHARJO 02,20316148,SD,NEGERI,A,Margorejo,Dk Muktisari Rt 05 Rw 02,-6.7368,111.0067
SD NEGERI NGAWEN 02,20316150,SD,NEGERI,A,Margorejo,Jalan Pati - Kudus Km 5,-6.775,110.9983
SD NEGERI PEGANDAN 01,20316120,SD,NEGERI,A,Margorejo,Desa Pegandan,-6.7678,110.9964
SD NEGERI PEGANDAN 02,20316119,SD,NEGERI,A,Margorejo,Jl Desa Pegandan Rt 3/2,-6.7674,110.9878
SD NEGERI PENAMBUHAN 01,20316132,SD,NEGERI,A,Margorejo,Ds Penambuhan,-6.7832,111.0195
SD NEGERI SOKOKULON 01,20316597,SD,NEGERI,B,Margorejo,Ds Sokokulon,-6.786,110.9927
SD NEGERI SOKOKULON 02,20316596,SD,NEGERI,A,Margorejo,Desa Sokokulon,-6.7775,110.9883
SD NEGERI SUKOBUBUK 01,20316538,SD,NEGERI,A,Margorejo,Ds Sukobubuk,-6.7445,110.9496
SD NEGERI SUKOHARJO 01,20316536,SD,NEGERI,A,Margorejo,Jln. Pati - Banyuurip km.4,-6.7537,111.01
SD NEGERI SUKOHARJO 03,20316552,SD,NEGERI,A,Margorejo,Jl.sudiyono,-6.7522,111.0141
SD NEGERI WANGUNREJO 01,20316439,SD,NEGERI,Belum Terakreditasi,Margorejo,Jl Raya Pati Kudus Km 8,0.0,0.0
SD Plus Abayasa Islamic School,70006703,SD,SWASTA,B,Margorejo,Dk. Cacah Rt. 6 Rw. 2,-6.7536,111.0128
SDIT PEMBINA  GENERUS,70007477,SD,SWASTA,A,Margorejo,Desa Langenharjo Rt 5 Rw 2,-6.7796,111.035
Sekolah Rakyat Menengah Pertama 12 Pati,70055394,SD,NEGERI,Belum Terakreditasi,Margorejo,"Jl. Soediono, Ds. Sukoharjo, Kec. Margorejo, Kab. Pati, Jawa Tengah",-6.7558,111.0157
SMP ISLAM AL IHSAN,20362747,SMP,SWASTA,B,Margorejo,"Jalan Raya Lingkar Ngawen, Desa Ngawen RT 05 RW 02",-6.7848,111.2316
SMP IT INSAN MULIA,20348743,SMP,SWASTA,B,Margorejo,Jalan Soewondo No 1,-6.7424,111.0149
SMP IT ITTIHADUL MUWAHIDIN,20338952,SMP,SWASTA,B,Margorejo,Jl. Raya Pati - Kudus km. 6 Pati,-6.7605,110.9943
SMP NEGERI 1 MARGOREJO,20338962,SMP,NEGERI,A,Margorejo,"Ds.Langenharjo, Kec. Margorejo, Kab. Pati, Prov. Jawa Tengah",-6.7786,111.0319
SMP NEGERI 2 MARGOREJO,20338863,SMP,NEGERI,A,Margorejo,Jalan Desa Badegan,-6.7674,111.0047
SMP QT AL AKROM BANYUURIP,70002838,SMP,SWASTA,B,Margorejo,Jl. Raya Banyuurip,-6.7531835,110.9518154
MI AL HIDAYAH,69726190,SD,SWASTA,A,Gembong,Dukuh Bengkal Rt 01 Rw 06,-6.7094,110.9435
MI ASSALAMIYYAH,69993391,SD,SWASTA,B,Gembong,DS BERMI RT 003 RW 005 KEC GEMBONG,-6.7276,110.9502
MI HIDAYATUL ISLAM,69727152,SD,SWASTA,B,Gembong,DS.GEMBONG KEC GEMBONG,-6.7032,110.9446
MI IANATUL ISLAM,69726189,SD,SWASTA,A,Gembong,Jl. Gembong - Argojembangan KM 3 Pl,-6.695,110.9329
MI KHOIRIYAH,69726187,SD,SWASTA,A,Gembong,DS.SITI LUHUR KEC GEMBONG,-6.7087,110.9692
MI MANBAUL ULUM,60712166,SD,SWASTA,B,Gembong,BERMI - GEMBONG - PATI,-6.7222,110.9483
MI MATHOLIUL HUDA,69726197,SD,SWASTA,A,Gembong,DK. POSONO RT.01 RW.07 DS. KLAKAHKASIHAN KEC. GEMBONG KAB. PATI,-6.6543,110.9435
MI MATHOLIUL ULUM,69726185,SD,SWASTA,A,Gembong,DS WONOSEKAR KEC GEMBONG,-6.6952,110.9709
MI MIFTAHUL HUDA,69726194,SD,SWASTA,A,Gembong,Rt. 01 Rw. 03,-6.7187,110.9552
MI MIFTAHUL ULUM,60712167,SD,SWASTA,B,Gembong,JL. RAYA PATI GEMBONG KM. 12,-6.7072,110.9496
MI NURUL MA`ARIF,69977296,SD,SWASTA,A,Gembong,DS. SEMIREJO RT.01 RW.03 KEC. GEMBONG KAB. PATI,0.0,0.0
MI PIM MUJAHIDIN,60712169,SD,SWASTA,A,Gembong,Dk. Randu RT 02 RW 01 Ds. Bageng Kec. Gembong Kab. Pati,-6.6937,110.942
MI RAUDLATUL FALAH,60712168,SD,SWASTA,A,Gembong,BORO SITILUHUR GEMBONG,-6.6457,110.9494
MI TAHFIDZUL QURAN,69727500,SD,SWASTA,A,Gembong,DS.BERMI KEC GEMBONG,-6.724,110.9504
MI TARBIYATUL ATHFAL,60712170,SD,SWASTA,A,Gembong,DK. KENDIL RT. 03 RW. 03 DS. KLAKAHKASIHAN,-6.6767,110.9492
MI TARBIYATUL ISLAMIYAH,69727494,SD,SWASTA,B,Gembong,DS.KLAKAHKASIHAN KEC GEMBONG,-6.7219,110.9508
MI TARBIYATUS SIBYAN,69727151,SD,SWASTA,A,Gembong,DS.KETANGGAN KEC GEMBONG,-6.7077,110.9694
MI THORIQOTUL HUDA,69726198,SD,SWASTA,B,Gembong,KLAKAHKASIHAN RT:04/RW:05,-6.6589,110.9332
MTS AL MA`ARIF,20364055,SD,SWASTA,A,Gembong,RT.04 RW.02,-6.7037,110.9451
MTS KHOIRIYAH,20364056,SD,SWASTA,B,Gembong,JL. PATI GN. ROWO KM 14 SITILUHUR,-6.6612,110.9732
MTS MANBAUL ULUM,20364054,SD,SWASTA,B,Gembong,Jl Raya Bermi - Gembong Km 01,-6.6462,110.9482
MTS MATHOLIUL - HUDA,20364060,SD,SWASTA,B,Gembong,Desa Posono Klakahkasihan Kecamatan Gembong Kabupaten Pati,-6.6543,110.9433
MTS PIM MUJAHIDIN,20364053,SD,SWASTA,A,Gembong,RT.02 RW.01,-6.6947,110.9423
MTS RAUDLATUL FALAH,20364057,SD,SWASTA,B,Gembong,BORO RT. 04/04,-6.6457,110.9496
MTS TARBIYATUL ISLAMIYAH,20364058,SD,SWASTA,B,Gembong,KLAKAHKASIHAN,-6.6709,110.9566
MTS TARBIYATUS SIBYAN,20364059,SD,SWASTA,B,Gembong,KETANGGAN GEMBONG PATI,-6.6753,110.9701
MTS TERPADU MUWAHIDUN,20364061,SD,SWASTA,A,Gembong,JL. MURIA GANG 08 NO.705,-6.7111,110.9423
MTS THORIQOTUL HUDA,69726395,SD,SWASTA,C,Gembong,DS.KLAKAHKASIHAN KEC GEMBONG,-6.659,110.9332
MTSN 3 PATI,20364052,SD,NEGERI,A,Gembong,JL. PATI GEMBONG KM 10,-6.7028,110.972
SD NEGERI BAGENG 01,20317214,SD,NEGERI,A,Gembong,Bageng,-6.6962,110.9447
SD NEGERI BAGENG 02,20317067,SD,NEGERI,A,Gembong,Ds Bageng Rt 2/3,-6.6898,110.9406
SD NEGERI BERMI 02,20317057,SD,NEGERI,A,Gembong,Ds Bermi,-6.7235,110.9501
SD NEGERI BERMI 03,20331988,SD,NEGERI,B,Gembong,Ds Bermi Rt 1/10,-6.7186364,110.9282999
SD NEGERI GEMBONG 01,20317108,SD,NEGERI,A,Gembong,Ds Gembong,-6.7051,110.9447
SD NEGERI GEMBONG 03,20317106,SD,NEGERI,B,Gembong,Ds Gembong Rt 2/6,-6.6926,110.9416
SD NEGERI GEMBONG 04,20317105,SD,NEGERI,A,Gembong,Jalan Raya Pati-Gembong Km. 12,-6.7359,110.9556
SD NEGERI JOLONG 01,20317088,SD,NEGERI,B,Gembong,PTPN IX Kebun Jollong,-6.6535,110.9339
SD NEGERI KEDUNGBULUS 02,20316274,SD,NEGERI,A,Gembong,Kedungbulus Rt 3/2,-6.7135,110.9799
SD NEGERI KETANGGAN 02,20316243,SD,NEGERI,B,Gembong,Ds Ketanggan,-6.675,110.9725
SD NEGERI KLAKAHKASIHAN 01,20316366,SD,NEGERI,B,Gembong,Dk Domo,-6.6683,110.9521
SD NEGERI KLAKAHKASIHAN 02,20331990,SD,NEGERI,A,Gembong,Dukuh Geger,-6.6568,110.9225
SD NEGERI PLUKARAN 01,20330933,SD,NEGERI,A,Gembong,Ds Plukaran Rt 2/2,-6.6937,110.9339
SD NEGERI PLUKARAN 02,20316212,SD,NEGERI,B,Gembong,Jln. Gembong-Argojembangan,-6.6588,110.9148
SD NEGERI POHGADING,20316209,SD,NEGERI,A,Gembong,POHGADING,-6.6906,110.9596
SD NEGERI SEMIREJO 02,20316188,SD,NEGERI,A,Gembong,Dk. Randangan Rt.1/4,-6.7079,110.9912
SD NEGERI SITILUHUR 02,20316605,SD,NEGERI,A,Gembong,Jln Ki Ageng Loko Joyo,-6.6594,110.9667
SD NEGERI WONOSEKAR,20316442,SD,NEGERI,B,Gembong,Jl Pati Gembong Km 9,-6.7078,110.9798
SMP ISLAM RAUDLATUL FALAH,20338970,SMP,SWASTA,A,Gembong,Jl Raya Gembong Bermi Km 1 Pati 59162,-6.7041,110.9332
SMP NEGERI 1 GEMBONG,20338983,SMP,NEGERI,A,Gembong,Jln Raya Pati Gembong Km 11,-6.7071,110.9603
SMPQT AS-SALAFIYAH,70010854,SMP,SWASTA,A,Gembong,"RT. 03 RW. 03, Desa Bageng",-6.6877,110.9391
MI BID`UL ULUM,69726202,SD,SWASTA,B,Tlogowungu,SUMBERMULYO 05/1 TLOGOWUNGU PATI,-6.6649,110.9971
MI DARUSSALAM,69726220,SD,SWASTA,A,Tlogowungu,Dukuh Sambikerep RT 003/03,-6.6899,111.0168
MI KHOIRIYAH GUWO,60729488,SD,SWASTA,B,Tlogowungu,DESA GUWO,-6.6763,110.985
MI MASLAKUL HUDA,69726200,SD,SWASTA,B,Tlogowungu,GUNUNGSARI RT01/01,-6.716,110.9507
MI Matholi`ul Huda,69819560,SD,SWASTA,B,Tlogowungu,RT 01/ 05 Desa Suwatu,-6.7046,111.0299
MI MATHOLI`UN NAJAH,69727496,SD,SWASTA,B,Tlogowungu,DS.TLOGOSARI KEC TLOGOWUNGU,-6.7192,111.0088
MI MIFTAHUL ULUM,69727499,SD,SWASTA,B,Tlogowungu,DS.CABAK KEC TLGOWUNGU,-6.719,110.986
MI MUHAMMADIYAH,69725319,SD,SWASTA,A,Tlogowungu,JLN. NUSA INDAH,-6.704015,111.010431
MI NABAUL ULUM,69727495,SD,SWASTA,A,Tlogowungu,Desa Wonorejo RT 2 RW 1 Kecamatan Tlogowungu Kabupaten PAti,-6.7088,111.0439
MI NDHOLO KUSUMO,69927958,SD,SWASTA,B,Tlogowungu,Jl. Tlogosari - Tlogowungu Rt 05 Rw 01,-6.6599,111.0234
MI NURUL ISLAM,69726201,SD,SWASTA,B,Tlogowungu,DS.SUMBERMULYO TLOGOWUNGU,-6.6613,111.0008
MI SALAFIYAH,60729487,SD,SWASTA,A,Tlogowungu,DESA TAJUNGSARI,-6.6528,110.9844
MI SALAFIYAH LAHAR,60730248,SD,SWASTA,A,Tlogowungu,JL RAYA TLOGOWUNGU PATI KM 07 DESA LAHAR KEC TLOGOWUNGU KAB PATI,-6.7021,111.0087
MI TARBIYATUL ULUM,60729489,SD,SWASTA,A,Tlogowungu,RANDU GUNTING TAJUNGSARI TLOGOWUNGU PATI RT 05/04,-6.643473,110.974875
MTS ASY`ARIYAH,20364113,SD,SWASTA,B,Tlogowungu,TAJUNGSARI,-6.643,110.9743
MTS DAARUL `ULUM,20364115,SD,SWASTA,A,Tlogowungu,JL. PATI TLOGOWUNGU KM.3 SANI,-6.723,111.0151
MTS KHOIRIYAH GUWO,20364117,SD,SWASTA,B,Tlogowungu,JL. TLOGOWUNGU GUNUNGROWO,-6.6832,110.9873
MTS MASLAKUL HUDA,20364116,SD,SWASTA,B,Tlogowungu,JL. TLOGOWUNGU GUNUNGWUNGKAL KM 17 GUNUNGSARI,-6.6161,110.9523
MTS MATHOLI`UL HUDA,69725800,SD,SWASTA,B,Tlogowungu,DS.SUWATU KEC TLOGOWUNGU,-6.6519,111.0121
MTS MATHOLI`UN NAJAH,20364112,SD,SWASTA,B,Tlogowungu,TLOGOSARI,-6.6643,111.0088
MTS MIFTAHUL ULUM,20364114,SD,SWASTA,B,Tlogowungu,CABAK RT 03/2 TLOGOWUNGU PATI,-6.6266,110.9862
MTS NABA`UL ULUM,20364109,SD,SWASTA,B,Tlogowungu,"JL. BAPOH TLOGOWUNGU KM.1,5",-6.7077,111.0445
MTS NURUL ISLAM,20364111,SD,SWASTA,B,Tlogowungu,RT 04 RW 2,-6.6632,111.004
MTS SALAFIYAH LAHAR,20364110,SD,SWASTA,A,Tlogowungu,LAHAR,-6.6489,110.9986
SD IT AL - IKHLAS,69762661,SD,SWASTA,B,Tlogowungu,DESA TLOGOREJO,-6.7063,111.0168
SD NEGERI CABAK 01,20316994,SD,NEGERI,A,Tlogowungu,Cabak,-6.6287,110.994
SD NEGERI CABAK 03,20317014,SD,NEGERI,B,Tlogowungu,Desa Cabak RT 02 RW 04,-6.6772,110.9825
SD NEGERI GUWO 03,20317227,SD,NEGERI,A,Tlogowungu,Ds. Guwo RT. 02 RW. 02,-6.6839,110.9828
SD NEGERI JATIURIP 01,20317098,SD,NEGERI,B,Tlogowungu,Sumbermulyo,-6.6635,111.0025
SD NEGERI KLUMPIT,20316363,SD,NEGERI,C,Tlogowungu,Jl Tlogowungu - Gunungwungkal Km 18,-6.6155,110.9542
SD NEGERI LAHAR 02,20316380,SD,NEGERI,A,Tlogowungu,Lahar,-6.708,110.9943
SD NEGERI PANGONAN 01,20316107,SD,NEGERI,A,Tlogowungu,"Jl.Raya Tlogowungu - Gunungwungkal Km.17,5",-6.6218,110.9509
SD NEGERI PANGONAN 02,20316106,SD,NEGERI,B,Tlogowungu,Gunungsari RT 01 RW 05,-6.6298,110.9565
SD NEGERI PURWOSARI 02,20316181,SD,NEGERI,A,Tlogowungu,"Jl.tlogowungu Gn.rowo Km.1,5",-6.6999,111.0026
SD NEGERI REGALOH 02,20316177,SD,NEGERI,A,Tlogowungu,Ds. Regaloh RT. 02 RW. 03,-6.7005,111.0213
SD NEGERI SAMBIREJO 01,20316187,SD,NEGERI,A,Tlogowungu,Jl Tlogowungu-bapoh Km 2,-6.7093,111.0322
SD NEGERI SAMBIREJO 02,20316203,SD,NEGERI,A,Tlogowungu,Jl Tlogowungu-Bapoh Km 02,-6.7085,111.0282
SD NEGERI SUWATU,20316657,SD,NEGERI,A,Tlogowungu,Ds.Suwatu RT 02 / RW 02,-6.6306,111.0086
SD NEGERI TAJUNGSARI 01,20316675,SD,NEGERI,A,Tlogowungu,Tajungsari,-6.6431,110.9766
SD NEGERI TAJUNGSARI 02,20316674,SD,NEGERI,A,Tlogowungu,Tajungsari,-6.6219,110.964
SD NEGERI TAMANSARI 02,20316652,SD,NEGERI,A,Tlogowungu,Jl  Raya Pati Tlogowungu Km 5,-6.7191,111.0167
SD NEGERI TAMANSARI 03,20316651,SD,NEGERI,B,Tlogowungu,Tamansari,-6.72,111.0127
SD NEGERI TLOGOSARI 01,20340708,SD,NEGERI,B,Tlogowungu,Dukuh Joga,-6.6565,111.0127
SD NEGERI TLOGOSARI 03,20316640,SD,NEGERI,A,Tlogowungu,Tlogosari,-6.6841,111.0245
SD NEGERI TLOGOWUNGU 01,20316639,SD,NEGERI,A,Tlogowungu,Jl Raya Pati Tlogowungu Km 7,-6.7073,111.0143
SD NEGERI TLOGOWUNGU 02,20316638,SD,NEGERI,B,Tlogowungu,Desa Tlogorejo RT 002 RW 002,-6.7233,111.0181
SD NEGERI WONOREJO 02,20316426,SD,NEGERI,A,Tlogowungu,Desa Wonorejo RT.01 RW.03,-6.7044,111.0426
SMP NEGERI 1 TLOGOWUNGU,20338978,SMP,NEGERI,A,Tlogowungu,Jl. Pati - Gunung Rowo KM.7,-6.7049,111.0078
SMP NEGERI 2 TLOGOWUNGU,20338992,SMP,NEGERI,A,Tlogowungu,Jln. Lahar-pasucen,-6.6535,111.0006
SMP TAHFIDZUL QUR`AN NDHOLO KUSUMO,69991962,SMP,SWASTA,B,Tlogowungu,"RT. 01  RW. 01, DESA TLOGOSARI",-6.6597,111.0248
MI BUSTANUL ULUM,60712286,SD,SWASTA,B,Wedarijaksa,PAGERHARJO,-6.6786,111.0847
MI MANSYAUL ULUM,60712285,SD,SWASTA,A,Wedarijaksa,SUKOHARJO,-6.6961,111.067
MI MASALIKUL ULUM,60712283,SD,SWASTA,A,Wedarijaksa,JONTRO,-6.6933,111.0739
MI MAUDLAUL ULUM,60712281,SD,SWASTA,B,Wedarijaksa,TAWANGHARJO,-6.7090105,111.0935462
MI MAZRO`ATUL ULUM,60712282,SD,SWASTA,B,Wedarijaksa,jln. Mataram Km 01 Desa Suwaduk kecamatan Wedarijaksa kab. Pati,-6.6784,111.0618
MI TARBIYATUL ULUM,60712284,SD,SWASTA,A,Wedarijaksa,JL. KAPTEN YUSUF NO.91,-6.695,111.0593
MI THORIQOTUL ULUM,60712287,SD,SWASTA,A,Wedarijaksa,TLOGOHARUM,-6.6711,111.0999
MTS BUSTANUL ULUM,20364127,SD,SWASTA,B,Wedarijaksa,NO NO 54 PAGERHARJO,-6.6837,111.0862
MTS IHYAUL ULUM,20364126,SD,SWASTA,A,Wedarijaksa,JL. RAA SOEWONDO NO 135 KM. 9 WEDARIJAKSA PATI,-6.6771,111.0723
MTS MANSYAUL ULUM,20364128,SD,SWASTA,B,Wedarijaksa,Ds. Sukoharjo Kec. Wedarijaksa Kabupaten Pati,-6.6955,111.0676
MTS MAZRO`ATUL ULUM,20364130,SD,SWASTA,C,Wedarijaksa,Desa Suwaduk RT 03 RW 01,-6.6783,111.0619
MTS THORIQOTUL ULUM,20364129,SD,SWASTA,B,Wedarijaksa,TLOGOHARUM,-6.6592,111.1002
SD NEGERI BANGSALREJO,20317038,SD,NEGERI,B,Wedarijaksa,Ds Bangsalrejo Jl Wedarijaksa-juana Kms,-6.7004,111.1094
SD NEGERI BUMIAYU 01,20317003,SD,NEGERI,B,Wedarijaksa,"Jl Bapoh - Tlogowungu Km 0,5",-6.7107,111.0542
SD NEGERI BUMIAYU 02,20317250,SD,NEGERI,A,Wedarijaksa,Ds Bumiayu,-6.7034,111.0589
SD NEGERI JATIMULYO,20317102,SD,NEGERI,A,Wedarijaksa,Jl Wedarijaksa-jetak Km 02,-6.6814,111.0907
SD NEGERI JETAK,20317091,SD,NEGERI,A,Wedarijaksa,Jln. Juwana - Wedarijaksa km 7,-6.6816,111.0951
SD NEGERI JONTRO,20316314,SD,NEGERI,A,Wedarijaksa,Ds Jontro,-6.692,111.0696
SD NEGERI KEPOH,20316265,SD,NEGERI,A,Wedarijaksa,Ds Kepoh Rt.4/2,-6.6745,111.1051
SD NEGERI MARGOREJO,20316318,SD,NEGERI,A,Wedarijaksa,Ds Margorejo,-6.7102,111.0625
SD NEGERI NGURENREJO,20316159,SD,NEGERI,A,Wedarijaksa,Ds Ngurenrejo,-6.6946,111.0851
SD NEGERI NGURENSITI 01,20316157,SD,NEGERI,A,Wedarijaksa,Ds Ngurensiti,-6.698,111.0855
SD NEGERI PAGERHARJO 01,20316154,SD,NEGERI,A,Wedarijaksa,Pagerharjo,-6.6801,111.0793
SD NEGERI PAGERHARJO 02,20316153,SD,NEGERI,A,Wedarijaksa,Ds Pagerharjo,-6.6869,111.0791
SD NEGERI PANGGUNGROYOM 01,20316109,SD,NEGERI,A,Wedarijaksa,Ds Panggungroyom RT 8 RW 1,-6.6891,111.0678
SD NEGERI SUKOHARJO 01,20316537,SD,NEGERI,A,Wedarijaksa,Jln Raya Pati-tayu Km 6,-6.7023,111.0633
SD NEGERI SUKOHARJO 03,20317245,SD,NEGERI,B,Wedarijaksa,Ds Sukoharjo,-6.6987,111.0676
SD NEGERI SUWADUK 02,20316658,SD,NEGERI,A,Wedarijaksa,Ds Suwaduk,-6.6888,111.063
SD NEGERI TAWANGHARJO 01,20316644,SD,NEGERI,A,Wedarijaksa,DESA TAWANGHARJO,-6.7071,111.0827
SD NEGERI TLOGOHARUM 02,20317230,SD,NEGERI,B,Wedarijaksa,Ds.Tlogoharum,-6.6714,111.1067
SD NEGERI TLUWUK,20316635,SD,NEGERI,A,Wedarijaksa,Ds Tluwuk,-6.6809,111.1158
SD NEGERI TRANGKILAN,20316628,SD,NEGERI,A,Wedarijaksa,Ds Sidoharjo,-6.6845,111.1026
SD NEGERI WEDARIJAKSA 01,20316437,SD,NEGERI,A,Wedarijaksa,Jl Raya Pati Tayu Km -9,-6.676,111.0723
SD NEGERI WEDARIJAKSA 02,20316436,SD,NEGERI,A,Wedarijaksa,Jl Kapten Yusuf No 40 RT 02 / RW 05,-6.6801,111.074
SD NEGERI WEDARIJAKSA 03,20317244,SD,NEGERI,A,Wedarijaksa,Jl. Pati-Tayu KM 9 Wedarijaksa,-6.6881,111.0725
SMP Al-Quran Terpadu Yanbu`ul Qur`an 1,69962927,SMP,SWASTA,A,Wedarijaksa,Jalan Raya Pati Tayu Km 06 Desa Sukoharjo,-6.7048,111.0617
SMP NEGERI 1 WEDARIJAKSA,20338979,SMP,NEGERI,A,Wedarijaksa,Jl. Raya Pati - Tayu Km 9,-6.6889,111.0688
SMP NEGERI 2 WEDARIJAKSA,20338994,SMP,NEGERI,A,Wedarijaksa,Ds.kepoh,-6.6739,111.1016
SMPQT YANBU`UL QUR`AN 2 PATI,70054907,SMP,SWASTA,Belum Terakreditasi,Wedarijaksa,Jl. Raya Pati-Tayu  Km 5,-6.7066,111.0607
MI KHOIRIYATUL ULUM,60712276,SD,SWASTA,B,Trangkil,TEGALHARJO,-6.6422,111.0278
MI LUTHFUL ULUM,60712280,SD,SWASTA,A,Trangkil,RT 04 RW 08,-6.6677,111.045
MI MASLAKUL ULUM,60712279,SD,SWASTA,B,Trangkil,TRANGKIL,-6.6551,111.0795
MI MATHALI`UL HUDA,60712277,SD,SWASTA,A,Trangkil,PASUCEN,-6.6573,111.05
MI MISBAHUL ULUM,60712278,SD,SWASTA,A,Trangkil,Jl. Dampuawang No. 12 Desa Pasucen RT 05 RW 04,-6.659,111.0501
MI RAUDLATUL ULUM,60712274,SD,SWASTA,A,Trangkil,GUYANGAN,-6.6602,111.0995
MI SILAHUL ULUM,60712275,SD,SWASTA,A,Trangkil,ASEMPAPAN,-6.6595,111.1018
MI TARBIYATUL FALAH,69894631,SD,SWASTA,B,Trangkil,Karanglegi,-6.651731,111.074002
MI TARBIYATUS SALAM,69725762,SD,SWASTA,B,Trangkil,Komplek Masjid Al Amin,-6.662734,111.064073
MTS KHOIRIYATUL ULUM,20364118,SD,SWASTA,A,Trangkil,DESA TEGALHARJO KECAMATAN TRANGKIL KABUPATEN PATI,-6.6426,111.0278
MTS MASLAKUL ULUM,20364120,SD,SWASTA,B,Trangkil,TRANGKIL,-6.6657,111.0796
MTS MATHALIUL HUDA,20364119,SD,SWASTA,A,Trangkil,JL PASUCEN LAHAR KM 2,-6.6633,111.0494
MTS MISBAHUL ULUM,20364123,SD,SWASTA,B,Trangkil,JL. DAMPUAWANG NO. 12 PASUCEN,-6.6554,111.0502
MTS RAUDLATUL ULUM,20364122,SD,SWASTA,A,Trangkil,GUYANGAN,-6.6574,111.0991
MTs RAUDLATUL ULUM 2,70033186,SD,SWASTA,A,Trangkil,Jl. Raya Juwana - Tayu Km. 07,0.0,0.0
MTS SHIRATHUL ULUM,20364121,SD,SWASTA,B,Trangkil,KERTOMULYO,-6.6544,111.1004
MTS SILAHUL ULUM,20364124,SD,SWASTA,A,Trangkil,Jl. Juwana Tayu Km 08,-6.667,111.1017
MTSS LUTHFUL ULUM,20364125,SD,SWASTA,B,Trangkil,RT 04 RW 08 Pasucen Trangkil,-6.6679,111.0447
SD IT NURUL FIKRI,69880574,SD,SWASTA,B,Trangkil,JALAN SUTRA NO. 1 DS TRANGKIL,-6.6657,111.0656
SD NEGERI ASEMPAPAN,20317237,SD,NEGERI,B,Trangkil,Asempapan,-6.6674,111.1021
SD NEGERI GUYANGAN,20317073,SD,NEGERI,A,Trangkil,Guyangan Jl Juana Tayu Km 9,-6.6582,111.0962
SD NEGERI KADILANGU,20316293,SD,NEGERI,A,Trangkil,Jl.raya Juana Tayu Km.11,-6.6451,111.0843
SD NEGERI KAJAR 01,20316292,SD,NEGERI,A,Trangkil,Jl Raya Pati Tayu Km 10,-6.6698,111.0731
SD NEGERI KAJAR 02,20316291,SD,NEGERI,A,Trangkil,Desa Kajar RT 03 RW 05 Kecamatan Trangkil,-6.6724,111.0838
SD NEGERI KARANGLEGI 02,20317248,SD,NEGERI,A,Trangkil,Desa Karanglegi RT. 02 RW. 01 Kec. Trangkil Kab. Pati,-6.6586,111.072
SD NEGERI KARANGWAGE 01,20316303,SD,NEGERI,A,Trangkil,Ds Karangwage,-6.6435,111.0719
SD NEGERI KERTOMULYO 01,20317255,SD,NEGERI,B,Trangkil,Jl Raya Juwana-tayu Km 10,-6.6509,111.0735
SD NEGERI KETANEN,20316262,SD,NEGERI,A,Trangkil,Ds Ketanen,-6.6558,111.0642
SD NEGERI KRANDAN,20316361,SD,NEGERI,A,Trangkil,Krandan,-6.6521,111.084
SD NEGERI MOJOAGUNG 02,20316337,SD,NEGERI,A,Trangkil,Jl Raya Pati Tayu Km 14,-6.6426,111.0603
SD NEGERI PASUCEN 01,20317254,SD,NEGERI,A,Trangkil,JL. PASUCEN - LAHAR Km. 1,-6.6593,111.059
SD NEGERI PASUCEN 02,20316103,SD,NEGERI,A,Trangkil,Pasucen,-6.6666,111.046
SD NEGERI REJOAGUNG 01,20316176,SD,NEGERI,A,Trangkil,Ds Rejoagung,-6.6584,111.0761
SD NEGERI SAMBILAWANG,20316170,SD,NEGERI,A,Trangkil,Jl Juana Tayu Km 08 Ds Sambilawang Kec.Trangkil Kab. Pati,-6.6634,111.1004
SD NEGERI TEGALHARJO 01,20316617,SD,NEGERI,A,Trangkil,Ds.Tegalharjo,-6.6683,111.0462
SD NEGERI TEGALHARJO 02,20316616,SD,NEGERI,B,Trangkil,Ds Tegalharjo,-6.6433,111.0277
SD NEGERI TLUTUP,20316637,SD,NEGERI,A,Trangkil,Jl Raya Juana - Tayu Km 11,-6.6488,111.0867
SD NEGERI TRANGKIL 01,20317283,SD,NEGERI,A,Trangkil,Jl Nusa Indah,-6.6639,111.0773
SD NEGERI TRANGKIL 04,20316629,SD,NEGERI,A,Trangkil,Jl Wijayakusuma,-6.6608,111.0666
SD NEGERI TRANGKIL 05,20317218,SD,NEGERI,A,Trangkil,Jln Nusa Indah 02,-6.6687,111.0738
SD NEGERI TRANGKIL 06,20317217,SD,NEGERI,A,Trangkil,Jalan Wijaya Kusuma,-6.6618,111.0667
SD TERPADU BINA BANGSA PATI,70028135,SD,SWASTA,Belum Terakreditasi,Trangkil,Desa Ketanen,0.0,0.0
SMP NEGERI 1 TRANGKIL,20338679,SMP,NEGERI,A,Trangkil,Ds. Ketanen,-6.6557,111.0663
SMP NEGERI 2 TRANGKIL,20338993,SMP,NEGERI,A,Trangkil,JL.JUWANA TAYU KM.11,-6.6473,111.0837
SMP PLUS ABAYASA ISLAMIC SCHOOL,70005152,SMP,SWASTA,B,Trangkil,"Jl. Juwana-Tayu Km. 11, Tlutup, Trangkil",-6.6639,111.1045
SMP TERPADU BINA BANGSA,70011476,SMP,SWASTA,A,Trangkil,Jalan Raya Pati Tayu  KM 13 Desa Ketanen-Trangkil,-6.6486,111.0592
MADRASAH TSANAWIYAH PERGURUAN ISLAM MATHALI`UL FALAH PP MATHALI`UL FALAH,69937272,SD,SWASTA,C,Margoyoso,"Desa Kajen, Margoyoso Pati",0.0,0.0
MI AL HIKMAH KAJEN,60712225,SD,SWASTA,A,Margoyoso,Jl. Prima 005/001 Kajen Margoyoso Pati,-6.6055,111.0598
MI AL ISTIQOMAH,60712218,SD,SWASTA,A,Margoyoso,PURWOREJO,-6.5993,111.0443
MI DARUN NAJAH,60712220,SD,SWASTA,B,Margoyoso,RT 01 RW 03 Desa Ngemplak Kidul,-6.6113,111.0531
MI HADIWIJAYA,60712219,SD,SWASTA,A,Margoyoso,JALAN RONGGO KUSUMO KAJEN,-6.6164,111.0594
MI HIDAYATUL ISLAM,60712212,SD,SWASTA,A,Margoyoso,LAPANGAN OLAH RAGA,-6.6068,111.0584
MI I`ANATUT THALIBIN,60712217,SD,SWASTA,A,Margoyoso,RT 02 RW 06,-6.6026,111.0658
MI KHOIRIYAH,60712213,SD,SWASTA,B,Margoyoso,JALAN MASJID,-6.6005,111.0595
MI MANBAUL HUDA,60712214,SD,SWASTA,A,Margoyoso,JALAN RAYA TAYU-JUANA KM 06,-6.6248,111.0666
MI MATHALI`UL HUDA,60712221,SD,SWASTA,A,Margoyoso,LANGGENHARJO,-6.6289,111.0439
MI MATHLAUL HUDA,60712226,SD,SWASTA,B,Margoyoso,TANJUNGREJO,-6.6362929,111.0424662
MI MIFTAHUL HUDA,60712227,SD,SWASTA,B,Margoyoso,Rt 01 RW 04,-6.6045,111.0482
MI MIFTAHUL HUDA,69726204,SD,SWASTA,B,Margoyoso,DS PANGKALAN KEC MARGOYOSO,-6.6136,111.0464
MI MIFTAHUL HUDA,60712222,SD,SWASTA,B,Margoyoso,"Dk,Mondoliko Rt 01/ Rw 03 Ds. Tegalarum",-6.6086,111.0027
MI NAHJATUL FALAH,69727497,SD,SWASTA,B,Margoyoso,Jl Masjid Jami` Al Muttaqin,-6.6109,111.0676
MI Perguruan Islam Mathali`ul Falah PP. Mathali`ul Falah,69965519,SD,SWASTA,Belum Terakreditasi,Margoyoso,Jl. KH. Ahmad Mutamakkin,-6.606,111.0567
MI RAUDLATUT THALIBIN,60712216,SD,SWASTA,B,Margoyoso,KERTOMULYO,-6.6321,111.0784
MI RAUDLOTUL HUDA,60712223,SD,SWASTA,B,Margoyoso,RT 05 RW 01 Desa Tegalarum,-6.6099,111.0107
MI SALAFIYAH,60712224,SD,SWASTA,B,Margoyoso,RT.22/RW.06,-6.6355,111.0283
MI SALAFIYAH KAJEN,60712211,SD,SWASTA,A,Margoyoso,DS.KAJEN RT/RW 05/01,-6.6094,111.0604
MI TARBIYATUL ATHFAL,60712215,SD,SWASTA,A,Margoyoso,JALAN MASJID RT 03. RW 02,-6.6065,111.0681
MI TSAMROTUL HUDA,60712210,SD,SWASTA,A,Margoyoso,POHIJO,-6.6285,111.0732
MTS AL-HIKMAH,20364083,SD,SWASTA,A,Margoyoso,DS. KAJEN KEC. MARGOYOSO KAB. PATI,-6.6056239,111.0596806
MTS AL-ISTIQOMAH,69726383,SD,SWASTA,B,Margoyoso,DS.PURWOREJO KEC MARGOYOSO,-6.599,111.0442
MTS DARUN NAJAH,69726367,SD,SWASTA,A,Margoyoso,DS.NGEMPLAK KIDUL KEC MARGOYOSO,-6.6168,111.0491
MTS I`ANATUT THOLIBIN,69726368,SD,SWASTA,A,Margoyoso,DS.CEBOLEK KEC MARGOYOSO,-6.6027,111.0655
MTS KHOIRIYAH,20340436,SD,SWASTA,B,Margoyoso,WATUROYO MARGOYOSO,-6.6006,111.0595
MTS MADRASATUL QUR'AN SALAFIYAH,70049548,SD,SWASTA,A,Margoyoso,"Ds.Bulumanis Kidul RT 02 RW 01, Kec. Margoyoso, Kab. Pati",0.0,0.0
MTS MAMBA`UL HUDA,69726369,SD,SWASTA,C,Margoyoso,DS.SEMERAK KEC MARGOYOSO,-6.6146,111.0586
MTS MANABI`UL FALAH,69726370,SD,SWASTA,B,Margoyoso,DS.NGEMPLAK KIDUL KEC MARGOYOSO,-6.6093,111.0576
MTS MANBAUL HUDA,69726366,SD,SWASTA,C,Margoyoso,Jl Raya Tayu Juana Km 06 Tunjungrejo,-6.6113,111.0466
MTS PGIP HADIWIJAYA,20364080,SD,SWASTA,B,Margoyoso,JL. RONGGO KUSUMO,-6.6229,111.0594
MTS RAUDLATUSY SYUBBAN,20364081,SD,SWASTA,B,Margoyoso,JL.RONGGO KUSUMO GANG ANGGREK NO. 65 SEKARJALAK,-6.61,111.0632
MTS ROUDLOTUL HUDA,69726391,SD,SWASTA,B,Margoyoso,DS.TEGALARUM KEC MARGOYOSO,-6.6103,111.0078
MTS SALAFIYAH,69726364,SD,SWASTA,A,Margoyoso,"Ds. Kajen Rt 01/ Rw 01 Kec. Margoyoso, Kab. Pati",-6.6266,111.0606
MTSN 2 PATI,20364079,SD,NEGERI,A,Margoyoso,Jl. Pati - Tayu KM. 18,-6.6067,111.0396
MTSS BAITUS SALAM,69726393,SD,SWASTA,B,Margoyoso,DS.BULUMANIS LOR KEC MARGOYOSO,-6.6078,111.0658
PDF WUSTHA PONDOK PESANTREN TAHFIDZ NURUL QUR'AN,70051551,SD,SWASTA,Belum Terakreditasi,Margoyoso,Jl. Polgarut Selatan,0.0,0.0
SD ISLAM MIFTAHUL FALAH,20317142,SD,SWASTA,A,Margoyoso,Jl Tayu Juwana Km 7 Rt 1/2,-6.5912,111.0667
SD NEGERI BULUMANIS KIDUL,20317007,SD,NEGERI,C,Margoyoso,Ds Bulumanis Kidul,-6.6116,111.0717
SD NEGERI BULUMANIS LOR,20317006,SD,NEGERI,B,Margoyoso,Ds Bulumanis Lor,-6.6058,111.0689
SD NEGERI CEBOLEK 02,20317030,SD,NEGERI,B,Margoyoso,Jl Ki Cebolang,-6.5985,111.0663
SD NEGERI CEBOLEK KIDUL 01,20317029,SD,NEGERI,B,Margoyoso,Jl Kyai Cebolang No 1,-6.6065,111.0654
SD NEGERI KAJEN,20316290,SD,NEGERI,A,Margoyoso,Jln Ronggokusumo,-6.6078,111.0565
SD NEGERI KERTOMULYO 01,20316263,SD,NEGERI,B,Margoyoso,Jl Raya Tayu Juwana Km 10,-6.6351,111.0783
SD NEGERI LANGGENHARJO,20316377,SD,NEGERI,B,Margoyoso,DS.LANGGENHARJO,-6.6258,111.088
SD NEGERI MARGOTUHU KIDUL,20340703,SD,NEGERI,B,Margoyoso,JL. TAYU JUWANA KM.04,-6.5792,111.0617
SD NEGERI NGEMPLAK KIDUL 01,20316151,SD,NEGERI,A,Margoyoso,Jl Raya Pati Tayu,-6.6156,111.0533
SD NEGERI NGEMPLAK KIDUL 02,20316167,SD,NEGERI,A,Margoyoso,Ds Ngemplak Kidul,-6.6112,111.058
SD NEGERI NGEMPLAK LOR,20316165,SD,NEGERI,A,Margoyoso,Ds Ngemplak Lor,-6.6193,111.0691
SD NEGERI PANGKALAN,20316108,SD,NEGERI,A,Margoyoso,Ds Pangkalan,-6.619,111.0779
SD NEGERI POHIJO 01,20316208,SD,NEGERI,B,Margoyoso,Jl Tayu -  Juwana Km 10,-6.6279,111.0707
SD NEGERI PURWODADI,20316225,SD,NEGERI,A,Margoyoso,Jln Pati Tayu Km 20 No 182,-6.5927,111.043
SD NEGERI PURWOREJO,20316184,SD,NEGERI,A,Margoyoso,Jalan Tambak Buntu,-6.6131,111.0551
SD NEGERI SEKARJALAK 01,20316193,SD,NEGERI,A,Margoyoso,Ds Sekarjalak,-6.6098,111.0647
SD NEGERI SEMERAK,20316190,SD,NEGERI,B,Margoyoso,Ds Semerak,-6.5809,111.0551
SD NEGERI SIDOMUKTI 01,20316579,SD,NEGERI,B,Margoyoso,Jln Raya Pati - Tayu Km 15 Desa Sidomukti,-6.6261,111.054
SD NEGERI SIDOMUKTI 02,20316580,SD,NEGERI,A,Margoyoso,Ds Sidomukti,-6.6274,111.0478
SD NEGERI SONEYAN 01,20316592,SD,NEGERI,A,Margoyoso,Ds Soneyan,-6.6092,111.031
SD NEGERI SONEYAN 02,20330939,SD,NEGERI,A,Margoyoso,KEDUNG PANJANG,-6.6227,111.0308
SD NEGERI SONEYAN 03,20316573,SD,NEGERI,B,Margoyoso,Ds Soneyan RT 03 RW 02,-6.617,111.0201
SD NEGERI TANJUNGREJO 02,20316679,SD,NEGERI,A,Margoyoso,Desa Tanjungrejo,-6.6335,111.0433
SD NEGERI TEGALARUM,20316619,SD,NEGERI,B,Margoyoso,Ds. Tegalarum,-6.6107,111.01
SD NEGERI TUNJUNGREJO 01,20331995,SD,NEGERI,B,Margoyoso,Jln Kyai Cebolang No 31,-6.598,111.0663
SD NEGERI WATUROYO,20316438,SD,NEGERI,B,Margoyoso,Ds Waturoyo,-6.5955,111.0544
SD TERPADU AN NISMAH,69967207,SD,SWASTA,A,Margoyoso,Jl. Pati - Tayu KM 18,-6.6035,111.0519
SMP AL QURAN TERPADU AL HAMIDIYAH,69978364,SMP,SWASTA,A,Margoyoso,Jl. KH. Abdul Haq Rt. 05 Rw. 01,-6.6098,111.0681
SMP NEGERI 1 MARGOYOSO,20338973,SMP,NEGERI,A,Margoyoso,Jl K. Cebolang 17 Margoyoso,-6.5976,111.0654
SMP NEGERI 2 MARGOYOSO,20338988,SMP,NEGERI,A,Margoyoso,Jl.Tambak Buntu,-6.6015,111.0402
SMP SATU ATAP NEGERI 1 TANJUNGREJO,20362049,SMP,NEGERI,C,Margoyoso,DESA TANJUNGREJO,-6.6333,111.0399
SMP TAQDIS NURUL HUDA,69979027,SMP,SWASTA,B,Margoyoso,Desa Kajen Rt. 02 Rw. 01 Kec. Margoyoso Kab. Pati,-6.6089,111.0591
MI ISLAMIYAH,60712178,SD,SWASTA,A,Gunung Wungkal,GAJIHAN,-6.5806,110.999
MI MANBAUL HUDA,60712176,SD,SWASTA,B,Gunung Wungkal,SUMBEREJO,-6.5571,111.0156
MI MIFTAHUL HUDA SUMBERREJO,60712180,SD,SWASTA,A,Gunung Wungkal,SUMBERREJO,-6.6052,111.0156
MI MIFTAHUL ULUM,60712179,SD,SWASTA,B,Gunung Wungkal,GUNUNGWUNGKAL,-6.5731,110.9948
MI MINSYAUL HUDA,60712177,SD,SWASTA,A,Gunung Wungkal,Jembulwunut Rt. 03 Rw. 02,-6.5479,110.9953
MI MUAWANATUL FALAH,60712173,SD,SWASTA,A,Gunung Wungkal,NGETUK,-6.5662,111.0139
MI NURUL HIKMAH,60712181,SD,SWASTA,B,Gunung Wungkal,Dukuh Wedelan RT 001/ RW 003  Desa Gajihan,-6.5845,111.0242
MI TARBIYATUL ATHFAL,60712174,SD,SWASTA,B,Gunung Wungkal,RT 04 RW 01 Desa Jepalo,-6.5956,110.9612
MI TARBIYATUL AULAD,60712175,SD,SWASTA,A,Gunung Wungkal,PERDOPO,-6.5845,110.9746
MI TARBIYATUS SHIBYAN,60712171,SD,SWASTA,A,Gunung Wungkal,JL. RAYA GUNUNGWUNGKAL KM.7,-6.583,110.9878
MI THOWALIB,60712172,SD,SWASTA,A,Gunung Wungkal,"PESAGEN, RT.02/01 KEC. GUNUNGWUNGKAL KAB. PATI",-6.6068,111.0176
MTS ISLAMIYAH,69895120,SD,SWASTA,C,Gunung Wungkal,Gajihan,-6.580119,111.004652
MTS MIFTAHUL HUDA,20364063,SD,SWASTA,C,Gunung Wungkal,DS.SUMBERREJO RT 01 RW 03,-6.5509,111.0192
MTS SUNAN MURIA,69726371,SD,SWASTA,A,Gunung Wungkal,DS.JEMBULWUNUT KEC GUNUNGWUNGKAL,-6.5559,111.004
MTS TARBIYATUL AULAD,20364062,SD,SWASTA,C,Gunung Wungkal,JL. RAYA TAYU - GUNUNGSARI KM. 13,-6.6129,110.9776
MTS THOWALIB,20364064,SD,SWASTA,A,Gunung Wungkal,DS. PESAGEN RT. 01 RW. 01,-6.6033,111.0183
SD NEGERI BANCAK 01,20317039,SD,NEGERI,B,Gunung Wungkal,Desa Bancak RT. 04 RW. 01 Kec. Gunungwungkal,-6.5705,110.9845
SD NEGERI GADU 01,20317117,SD,NEGERI,A,Gunung Wungkal,"Gadu ,Rt.03,RW.02",-6.5957,111.0061
SD NEGERI GADU 02,20317249,SD,NEGERI,B,Gunung Wungkal,Gadu,-6.5954,111.0149
SD NEGERI GAJIHAN,20317113,SD,NEGERI,B,Gunung Wungkal,Gajihan RT 06 RW 02,-6.5871,111.0071
SD NEGERI GILING 01,20317131,SD,NEGERI,A,Gunung Wungkal,Desa Giling Rt 04 Rw 01,-6.5842,110.9661
SD NEGERI GILING 02,20317130,SD,NEGERI,A,Gunung Wungkal,Desa Giling Kecamatan Gunung Wungkal,-6.5576,110.9648
SD NEGERI GILING 03,20317129,SD,NEGERI,B,Gunung Wungkal,Desa Giling RT 03 RW 04,-6.5693,110.9574
SD NEGERI GULANGPONGGE 01,20317079,SD,NEGERI,A,Gunung Wungkal,Gulangpongge RT 02 /RW 01,-6.5794,110.9587
SD NEGERI GULANGPONGGE 02,20317080,SD,NEGERI,B,Gunung Wungkal,Ds. Gulangpongge Rt.07/Rw.02 Kec. Gunungwungkal Kab. Pati Prov. Jawa Tengah,-6.5736,110.9659
SD NEGERI GUNUNGWUNGKAL 01,20317074,SD,NEGERI,A,Gunung Wungkal,Jl. Raya Gunungwungkal - Tlogowungu Km 1,-6.5701,110.9878
SD NEGERI JEMBULWUNUT,20317096,SD,NEGERI,B,Gunung Wungkal,Desa Jembulwunut RT. 01 RW. 01,-6.5458,110.9978
SD NEGERI JEPALO,20340697,SD,NEGERI,B,Gunung Wungkal,Jepalo,-6.596,110.9605
SD NEGERI JRAHI 01,20316294,SD,NEGERI,A,Gunung Wungkal,DUKUH JIWO RT 03 RW 03,-6.5813,110.9395
SD NEGERI JRAHI 02,20316295,SD,NEGERI,A,Gunung Wungkal,Jrahi,-6.5689,110.9422
SD NEGERI NGETUK 01,20316160,SD,NEGERI,B,Gunung Wungkal,Desa Ngetuk RT. 01 RW. 02,-6.563,111.0183
SD NEGERI PERDOPO 02,20316220,SD,NEGERI,A,Gunung Wungkal,Perdopo,-6.5698,110.9774
SD NEGERI SAMPOK,20316201,SD,NEGERI,B,Gunung Wungkal,Sampok,-6.6064,110.981
SD NEGERI SIDOMULYO 01,20316578,SD,NEGERI,B,Gunung Wungkal,Jl Raya Gunungwungkal Tlogowungu Km 7,-6.6044,110.9666
SD NEGERI SIDOMULYO 02,20330937,SD,NEGERI,B,Gunung Wungkal,Desa Sidomulyo RT 07 RW 02 Kecamatan Gunungwungkal,-6.5994,110.9692
SD NEGERI SUMBEREJO 01,20331712,SD,NEGERI,B,Gunung Wungkal,Sumberejo,-6.5571,111.0163
SMP NEGERI 1 GUNUNGWUNGKAL,20339248,SMP,NEGERI,A,Gunung Wungkal,Jl. Raya Gunungwungkal,-6.5672,110.99
SMP NEGERI 2 GUNUNGWUNGKAL,20338984,SMP,NEGERI,A,Gunung Wungkal,Jl. Raya Sumberrejo-gunungwungkal,-6.5572,111.0267
MI Al Azhar Pati,60712139,SD,SWASTA,A,Cluwak,"JLN RAYA PATI - JEPARA KM 45 DESA MOJO, KEC. CLUWAK, KABUPATEN PATI",-6.507,110.9156
MI ALAM ALFA KID`S,69927959,SD,SWASTA,B,Cluwak,Jl. Raya Tayu-Jepara No. 460,-6.536,110.9706
MI DARUL FALAH,60712141,SD,SWASTA,A,Cluwak,SIRAHAN CLUWAK PATI,-6.5219,110.9138
MI ISLAMIYAH,60712146,SD,SWASTA,A,Cluwak,JL.K.WIRA`I NO.05 SUMUR CLUWAK PATI,-6.567548,110.917727
MI ISLAMIYAH 01,60712142,SD,SWASTA,A,Cluwak,JALAN RAYA TAYU - JEPARA KM 13 RT 12 RW 04,-6.5296,110.9318
MI ISLAMIYAH 02 MOJO,60712140,SD,SWASTA,A,Cluwak,JL.GANG MASJID MUSTAQIM 2,-6.5059,110.9276
MI MANAHIJUL ULUM,60712144,SD,SWASTA,B,Cluwak,Jl. Raya Tayu-Jepara Km. 12,-6.5638,110.9406
MI MANBA`UL FALAH,60712147,SD,SWASTA,A,Cluwak,RT 04 RW 03 Desa Gerit Kecamatan Cluwak Kabupaten Pati,-6.5154,110.9708
MI MANBA`UL ULUM,60712148,SD,SWASTA,A,Cluwak,GESENGAN,-6.5136,110.9246
MI MATHOLI`UL HUDA 01,60712145,SD,SWASTA,B,Cluwak,DK.CLUWAK RT.4 RW.2,-6.5105744,110.9450885
MI MATHOLI`UL HUDA 02,69726205,SD,SWASTA,B,Cluwak,DS.KARANGSARI CLUWAK,-6.5543,110.9477
MI MIFTAHUL HUDA,60712143,SD,SWASTA,B,Cluwak,PAYAK,-6.5285,110.9232
MTS DARUL FALAH SIRAHAN,20364042,SD,SWASTA,A,Cluwak,SIRAHAN CLUWAK,-6.5235,110.9143
MTS ISLAM,69726377,SD,SWASTA,B,Cluwak,DS.KARANGSARI KEC CLUWAK,-6.5014,110.9481
MTS ISLAMIYAH MOJO,20364041,SD,SWASTA,A,Cluwak,JL PATI-JEPARA KM 45,-6.5201,110.9356
MTS MANAHIJUL ULUM,69726372,SD,SWASTA,B,Cluwak,DS.PLAOSAN KEC CLUWAK,-6.5352,110.9406
MTS MANBA`UL FALAH,69726375,SD,SWASTA,B,Cluwak,DS.GERIT KEC CLUWAK,-6.5152,110.9709
MTS MATHOLI`UL HUDA,69726376,SD,SWASTA,B,Cluwak,DS.KARANGSARI KEC CLUWAK,-6.5594,110.967
MTS NURUL HUDA,69726373,SD,SWASTA,B,Cluwak,DS.NGABLAK KEC CLUWAK,-6.5496,110.9637
MTS SUNAN KALIJOGO,69726374,SD,SWASTA,B,Cluwak,Sumur RT 012 RW 002 Cluwak Pati,-6.5012,110.9651
SD NEGERI BLEBER,20317055,SD,NEGERI,A,Cluwak,Bleber,-6.5239,110.957
SD NEGERI GERIT 01,20317136,SD,NEGERI,B,Cluwak,Dk. Toyong Rt 06 Rw 01,-6.5125,110.9414
SD NEGERI GERIT 02,20317135,SD,NEGERI,A,Cluwak,Jalan Ngablak - Puncel Km. 03,-6.5235,110.9711
SD NEGERI GESENGAN 01,20317133,SD,NEGERI,B,Cluwak,Gesengan Rt 02 Rw 02,-6.5284,110.9851
SD NEGERI GESENGAN 02,20317132,SD,NEGERI,A,Cluwak,Gesengan,-6.5392,110.9326
SD NEGERI KARANGSARI 01,20316307,SD,NEGERI,A,Cluwak,Karangsari Rt 02 Rw 07,-6.5164,110.9517
SD NEGERI KARANGSARI 03,20316308,SD,NEGERI,B,Cluwak,Karangsari Rt 04 Rw 01,-6.5143,110.9526
SD NEGERI MEDANI 01,20316334,SD,NEGERI,B,Cluwak,"Medani, Rt. 05 Rw. 01",-6.550336,110.924794
SD NEGERI MOJO 01,20316342,SD,NEGERI,B,Cluwak,MOJO,-6.5071,110.9289
SD NEGERI MOJO 02,20316341,SD,NEGERI,B,Cluwak,Jln.Tayu-Jepara Km 18,-6.5074,110.9155
SD NEGERI MOJO 03,20316340,SD,NEGERI,B,Cluwak,Dukuh Mojo Pligen,-6.5144,110.9358
SD NEGERI MOJO 04,20316339,SD,NEGERI,B,Cluwak,Mojo Jati RT 02 RW 08,-6.5177,110.9322
SD NEGERI NGABLAK 01,20316142,SD,NEGERI,A,Cluwak,Ngablak,-6.5526,110.9329
SD NEGERI NGABLAK 02,20316141,SD,NEGERI,A,Cluwak,Desa Ngablak RT. 004 RW. 011,-6.535115,110.940639
SD NEGERI NGABLAK 03,20316140,SD,NEGERI,A,Cluwak,Jalan Ngablak- Gunungwungkal Km 1 Ngablak,-6.5649,110.955
SD NEGERI NGABLAK 04,20316139,SD,NEGERI,A,Cluwak,Jalan Raya Tayu Jepara Km 9,-6.5291,110.9733
SD NEGERI NGAWEN,20316134,SD,NEGERI,A,Cluwak,Ngawen,-6.5316,110.9636
SD NEGERI PAYAK 02,20316127,SD,NEGERI,A,Cluwak,Payak RT 14 RW 05,-6.5334,110.9298
SD NEGERI PAYAK 03,20340704,SD,NEGERI,B,Cluwak,Payak Rt 02 Rw 01,-6.5313,110.9227
SD NEGERI PLAOSAN 01,20316217,SD,NEGERI,A,Cluwak,Jl Raya Tayu - Jepara Km 12 Plaosan,-6.535,110.9455
SD NEGERI PLAOSAN 03,20316218,SD,NEGERI,B,Cluwak,Plaosan,-6.541059,110.939828
SD NEGERI SENTUL 01,20316588,SD,NEGERI,B,Cluwak,Sentul,-6.555,110.9371
SD NEGERI SENTUL 02,20316589,SD,NEGERI,A,Cluwak,Sentul,-6.5571,110.9475
SD NEGERI SIRAHAN 01,20316607,SD,NEGERI,B,Cluwak,Jalan Raya Tayu-Jepara Km 17,-6.514,110.9144
SD NEGERI SIRAHAN 02,20316606,SD,NEGERI,A,Cluwak,Sirahan,-6.526925,110.920219
SD NEGERI SUMUR 02,20316554,SD,NEGERI,B,Cluwak,Sumur,-6.5066,110.9577
SD NEGERI SUMUR 03,20316535,SD,NEGERI,A,Cluwak,Sumur Rt 18 Rw 03,-6.4982,110.9636
SMP NEGERI 1 CLUWAK,20338960,SMP,NEGERI,A,Cluwak,Jln Tayu Jepara Km 10,-6.5454,110.9693
SMP PANCASILA,20338964,SMP,SWASTA,B,Cluwak,Jalan  Raya Kelet Tayu,-6.5435,110.9176
MI ISLAMIYAH,60712270,SD,SWASTA,A,Tayu,Ds.Tendas Rt 05 RW I,-6.5502,111.0353
MI ISLAMIYAH 01,60712264,SD,SWASTA,B,Tayu,Jl. Raya Tayu-Jepara Km.5,-6.5514,111.0351
MI ISLAMIYAH 02,60712265,SD,SWASTA,A,Tayu,Jln. RAYA TAYU-JEPARA KM. 06,-6.533,110.9938
MI MABDAUL HUDA,60712262,SD,SWASTA,A,Tayu,Jl. Sentana RT 003 RW 001,-6.5413,111.0208
MI MAMBA`UN NIDHOM,60712263,SD,SWASTA,B,Tayu,Bulungan RT.06 /02 Tayu,-6.5349,111.039
MI MAMBAUL HIDAYAH,60712273,SD,SWASTA,A,Tayu,Pondowan,-6.566788,111.034841
MI MANBAUL HUDA,60712261,SD,SWASTA,B,Tayu,PUNDENREJO JL. P. SUDIRMAN KM. 3 TAYU,-6.5344,111.0272
MI MANSYAUL HUDA,60712271,SD,SWASTA,A,Tayu,Sendangrejo,-6.5545,111.0381
MI MIFTAHUL FALAH,60712269,SD,SWASTA,A,Tayu,Jl. Tayu-Juwana Km. 1,-6.549734,111.054445
MI MIFTAHUL HUDA,60712260,SD,SWASTA,A,Tayu,Jl. Ratu Kalinyamat No.51 RT 01/02,-6.5361,111.0491
MI MIFTAHUL ULUM,60712268,SD,SWASTA,A,Tayu,Keboromo,-6.542848,111.047021
MI RAUDLATUT THOLIBIN,60712272,SD,SWASTA,A,Tayu,Jalan Raya Tayu-Pati Km. 3 Pakis,-6.5664331,111.0405047
MI SIROJUL ANAM,60712267,SD,SWASTA,B,Tayu,Jl. K.H. Bahri Dk. Winong,-6.5799,111.0308
MI THORIQOTUL ISLAMIYAH,60712266,SD,SWASTA,A,Tayu,"Jl. Tayu - Puncel No.02, Luwang, Kec. Tayu, Kabupaten Pati, Jawa Tengah 59155",-6.5754,111.0438
MTS MAMBA`UN NIDHOM,69726378,SD,SWASTA,B,Tayu,Desa Bulungan Kec. Tayu Kab. Pati,-6.524,111.0217
MTS MAMBAUL HIDAYAH,69726397,SD,SWASTA,B,Tayu,DS.PONDOWAN KEC TAYU,-6.5669,111.0347
MTS MANBAUL HUDA,69725801,SD,SWASTA,B,Tayu,DS.PUNDENREJO KEC TAYU,-6.564019,111.05005
MTS MIFTAHUL FALAH,20364101,SD,SWASTA,B,Tayu,JL. RAYA TAYU JUWANA KM 01 DESA JEPATLOR,-6.5495,111.0544
MTS MIFTAHUL HUDA,20364105,SD,SWASTA,A,Tayu,JL. Ratu Kalinyamat No. 51 Tayu,-6.5356,111.0494
MTS MIFTAHUL ULUM,20364108,SD,SWASTA,B,Tayu,JL RAYA TAYU JEPARA KM 06 PURWOKERTO,-6.5329,110.9938
MTS NURUL HUDA,20364103,SD,SWASTA,B,Tayu,JL. RAYA TAYU - JUWANA KM. 3.5,-6.5666,111.0592
MTS PI AL HUDA,20364102,SD,SWASTA,A,Tayu,JL. RATU KALINYAMAT NO. 41 TAYUWETAN,-6.5354,111.0499
MTS RAUDLATUT THOLIBIN,20364106,SD,SWASTA,A,Tayu,JL. RAYA TAYU-PATI KM. 03 PAKIS TAYU PATI,-6.5662,111.0395
MTS SIROJUL ANAM,20364104,SD,SWASTA,B,Tayu,LUWANG RT 05 RW 02 KECAMATAN TAYU KABUPATEN PATI,-6.5296,111.0312
PDF. WUSTHA MAMBA`UL ULUM,70034233,SD,SWASTA,Belum Terakreditasi,Tayu,DESA PAKIS RT. 001 RW. 007,0.0,0.0
SD ANNIDA YA FATIMAH,69852841,SD,SWASTA,B,Tayu,Jl. Raden Patah Jepat Lor Tayu Pati,-6.5488,111.0492
SD ISLAM HIDAYAH,69880234,SD,SWASTA,B,Tayu,DS TAYU WETAN,-6.5332,111.0432
SD ISLAM SALAFIYAH MARGOMULYO,20317252,SD,SWASTA,B,Tayu,Jl. Tayu-Juana Km. 3 Margomulyo,-6.5619,111.0598
SD IT SALMAN AL-FARISI,69880575,SD,SWASTA,B,Tayu,JALAN SALMAN AL-FARISI NO. 5 PERUM TAYLON SEJAHTERA,-6.5326,111.0353
SD MARANATHA,20341464,SD,SWASTA,B,Tayu,"Jl. Sedayu no 18, Tayu kulon",-6.5338,111.0446
SD MUHAMMADIYAH KALIKALONG,20316288,SD,SWASTA,A,Tayu,Kalikalong,-6.5117,111.0413
SD MUHAMMADIYAH MARGOMULYO,20317266,SD,SWASTA,A,Tayu,Jln. Tayu Juwana Km 3.5,-6.5373,111.0602
SD NEGERI BENDOKATONKIDUL,20317059,SD,NEGERI,A,Tayu,Bendokaton Kidul,-6.5406,111.0048
SD NEGERI BULUNGAN,20317215,SD,NEGERI,A,Tayu,Bulungan,-6.5263,111.019
SD NEGERI DOROREJO,20317018,SD,NEGERI,B,Tayu,Dororejo,-6.5345,111.0527
SD NEGERI JEPATKIDUL 02,20317276,SD,NEGERI,A,Tayu,Jepatkidul,-6.5572,111.0505
SD NEGERI JEPATLOR,20317093,SD,NEGERI,A,Tayu,Jepatlor,-6.5789,111.0512
SD NEGERI KALIKALONG 01,20316287,SD,NEGERI,A,Tayu,Jln. Tayu-Dukuhseti Km. 4,-6.5111,111.0421
SD NEGERI KEBOROMO,20316247,SD,NEGERI,B,Tayu,"Jl. Pantai, Ds. Keboromo RT : 04 RW : 01 Kec. Tayu Kab. Pati",-6.548,111.061
SD NEGERI KEDUNGSARI 01,20316271,SD,NEGERI,A,Tayu,Jalan Tayu Pati Km 4,-6.5484,111.0409
SD NEGERI KEDUNGSARI 02,20316270,SD,NEGERI,A,Tayu,Jalan TAYU PATI Km 5,-6.5767,111.044
SD NEGERI LUWANG 01,20316330,SD,NEGERI,B,Tayu,Luwang,-6.5194,111.0409
SD NEGERI MARGOMULYO,20316320,SD,NEGERI,A,Tayu,Margomulyo,-6.574119,111.056136
SD NEGERI PAKIS 01,20316110,SD,NEGERI,A,Tayu,Jalan Raya Tayu Pati Km 3,-6.5496,111.0402
SD NEGERI PAKIS 02,20316112,SD,NEGERI,A,Tayu,Pakis,-6.5668,111.0392
SD NEGERI PONDOWAN 01,20317269,SD,NEGERI,B,Tayu,Jl.KH Abdul Rozak No. 221Pondowan Kecamatan Tayu,-6.553,111.0343
SD NEGERI PONDOWAN 02,20316223,SD,NEGERI,A,Tayu,Pondowan,-6.569,111.0342
SD NEGERI PUNDENREJO,20316229,SD,NEGERI,B,Tayu,Jalan Raya Tayu Jepara Km 3,-6.534,111.0247
SD NEGERI PURWOKERTO 01,20316204,SD,NEGERI,A,Tayu,Jalan Tayu Jepara Km 5,-6.5331,111.0085
SD NEGERI PURWOKERTO 02,20316185,SD,NEGERI,A,Tayu,Purwokerto,-6.5322,110.9928
SD NEGERI SAMBIROTO 01,20316202,SD,NEGERI,A,Tayu,SAMBIROTO,-6.5375,111.0556
SD NEGERI SAMBIROTO 02,20330935,SD,NEGERI,B,Tayu,Sambiroto,-6.5772,111.0381
SD NEGERI SENDANGREJO,20316169,SD,NEGERI,A,Tayu,Sendangrejo,-6.5581,111.0353
SD NEGERI TAYU KULON 02,20316621,SD,NEGERI,B,Tayu,Jalan P. Sudirman No. 192,-6.5419,111.0392
SD NEGERI TAYU WETAN 01,20316624,SD,NEGERI,A,Tayu,JL. RA KARTINI NO 50 A,-6.5384,111.0525
SD NEGERI TAYU WETAN 03,20316623,SD,NEGERI,A,Tayu,Gang Anggrek IV No 18,-6.5469,111.0427
SD NEGERI TENDAS,20316613,SD,NEGERI,A,Tayu,Tendas,-6.5486,111.0327
SD NEGERI TUNGGULSARI,20316440,SD,NEGERI,A,Tayu,Jl.Raya Tayu Juwana Km 3,-6.5565,111.0598
SMP BOPKRI TAYU,20338947,SMP,SWASTA,B,Tayu,JALAN P. DIPONEGORO 35 TAYU,-6.5441,111.0513
SMP MUHAMMADIYAH 2 KALIKALONG,20338954,SMP,SWASTA,Tidak Terakreditasi,Tayu,Ds Kalikalong,-6.5119,111.0414
SMP MUHAMMADIYAH 4 TAYU,20338957,SMP,SWASTA,B,Tayu,Jl. Untung Suropati No.17,-6.5439,111.0527
SMP NEGERI 1 TAYU,20338860,SMP,NEGERI,A,Tayu,Jl. Diponegoro 33,-6.5457,111.0506
SMP NEGERI 2 TAYU,20338865,SMP,NEGERI,A,Tayu,Jl.Tayu Dukuhseti Km 3,-6.5178,111.0427
SMP TERPADU JOKO TINGKIR,70011478,SMP,SWASTA,A,Tayu,Desa Luwang,-6.5199,111.0309
MI HIMMATUL MUTAALIMIN 02,60712156,SD,SWASTA,A,Dukuhseti,DS. DUKUHSETI RT 01 RW 01,-6.4657,111.0305
MI HIMMATUL MUTAALLIMIN 01,69726210,SD,SWASTA,B,Dukuhseti,Jl. Dukuhseti - Banyutowo Km.01 Dukuhseti,-6.4598,111.0381
MI HIMMATUL MUTAALLIMIN 03,69726211,SD,SWASTA,B,Dukuhseti,DS. DUKUHSETI RT 07 RW 03,-6.4467,111.0368
MI MADARIJUL HUDA,60712150,SD,SWASTA,A,Dukuhseti,JL Raya Tayu Puncel KM 11,-6.4442,111.0218
MI MAMBAUL ULUM,69726219,SD,SWASTA,A,Dukuhseti,DS.GROGOLAN KEC DUKUHSETI,-6.4861,111.0273
MI MANAHIJUL HUDA,69901954,SD,SWASTA,A,Dukuhseti,Jalan Kauman Nomor 01,-6.488749,111.037853
MI MANAHIJUL HUDA,60712158,SD,SWASTA,B,Dukuhseti,PENGGUNG,-6.4459,111.038
MI MATHOLI`UL HUDA,60712154,SD,SWASTA,B,Dukuhseti,BAKALAN,-6.506,111.0433
MI MIFTAHUL FALAH,60712161,SD,SWASTA,A,Dukuhseti,PUNCEL,-6.4203,110.9773
MI MIFTAHUL HUDA,60712151,SD,SWASTA,B,Dukuhseti,Jl. Raya Tayu-Puncel Km. 15 Sumurtowo,-6.421579,111.014553
MI MINSYA`UL HUDA,60712159,SD,SWASTA,B,Dukuhseti,JL. Tayu-Puncel Km. 14,-6.4392,111.0004
MI MINSYAUL WATHON,69727498,SD,SWASTA,A,Dukuhseti,DS. GROGOLAN RT 008 RW 003,-6.4803,111.0227
MI MUHAMMADIYAH,60712153,SD,SWASTA,B,Dukuhseti,NGAGEL,-6.4872,111.0351
MI NURUL FALAH,60712155,SD,SWASTA,B,Dukuhseti,"Jl. Bawal No.11 , RT 05 RW 01",-6.4578,111.0472
MI SULLAMUL HUDA,60712160,SD,SWASTA,A,Dukuhseti,JL. TAYU-PUNCEL KM.17 Rt.07 / Rw.02,-6.4449,110.9848
MI TARBIYATUL BANIN BANAT,60712162,SD,SWASTA,B,Dukuhseti,Jl. Raya Tayu-Puncel Km.8,-6.47045,111.036713
MI TARBIYATUL ISLAM,60712157,SD,SWASTA,A,Dukuhseti,JLN. RAYA TAYU KALITELO KM.18 NGARENGAN,-6.4841,110.9982
MI TARBIYATUL ISLAM  01,69726207,SD,SWASTA,A,Dukuhseti,DS.WEDUSAN KEC DUKUHSETI,-6.4937,110.9749
MI TARBIYATUL ISLAM 02,69726209,SD,SWASTA,A,Dukuhseti,Jl. KRPH Ngrancang Rt 05 Rw 05,-6.4557,110.9866
MIN 2 PATI,60712149,SD,NEGERI,A,Dukuhseti,"Jl. Raya Tayu - Puncel Km. 7,5 Alasdowo",-6.4702,111.0372
MTS HIMMATUL MUTAALLIMIN,69726381,SD,SWASTA,B,Dukuhseti,Desa Dukuhseti Kecamatan Dukuhseti Kabupaten Pati,-6.4571,111.031
MTS MADARIJUL HUDA,20364047,SD,SWASTA,A,Dukuhseti,JL. RAYA TAYU-PUNCEL KM. 11,-6.446,111.0227
MTS MAMBA`UL ULUM,20364045,SD,SWASTA,B,Dukuhseti,GROGOLAN,-6.4867,111.0273
MTS MANAHIJUL HUDA,69726379,SD,SWASTA,A,Dukuhseti,Jl. Kauman No. 02 RT 04 RW 01 Ngagel Dukuhseti Pati,-6.4892,111.0385
MTS MATHOLI`UL HUDA,20364043,SD,SWASTA,B,Dukuhseti,RT.3 RW.1,-6.506,111.0431
MTS MIFTAHUL FALAH,69726392,SD,SWASTA,B,Dukuhseti,DS.PUNCEL KEC DUKUHSETI,-6.4203,110.9773
MTS MINSYA`UL WATHON,69726382,SD,SWASTA,B,Dukuhseti,GROGOLAN RT. 008 RW. 003 DUKUHSETI,-6.4806,111.0228
MTS TARBIYATUL BANIN BANAT,20364044,SD,SWASTA,Belum Terakreditasi,Dukuhseti,JL RAYA TAYU PUNCEL KM 8,0.0,0.0
MTS YPI ARRIDLO,20364046,SD,SWASTA,C,Dukuhseti,JL RAYA TAYU-PUNCEL,-6.4526,111.0389
SD BOPKRI TEGALOMBO,20317163,SD,SWASTA,B,Dukuhseti,Margorejo,-6.4431,110.9948
SD NEGERI ALASDOWO 01,20317262,SD,NEGERI,A,Dukuhseti,Jln. Tayu - Puncel. Km 7 Dukuhseti,-6.4611,111.0389
SD NEGERI BAKALAN,20317050,SD,NEGERI,B,Dukuhseti,Bakalan,-6.5026,111.0406
SD NEGERI BANYUTOWO 02,20317286,SD,NEGERI,A,Dukuhseti,Banyutowo,-6.4589,111.0462
SD NEGERI DUKUHSETI 01,20317260,SD,NEGERI,A,Dukuhseti,"Jln. Tayu - Puncel Km.10, Dukuhseti",-6.4609,111.0334
SD NEGERI DUKUHSETI 02,20317278,SD,NEGERI,B,Dukuhseti,"Jln. Tayu - Puncel Km 10, Dukuhseti",-6.4562,111.0316
SD NEGERI DUKUHSETI 03,20317228,SD,NEGERI,B,Dukuhseti,Jl. Desa Dukuhseti,-6.4863,111.0284
SD NEGERI DUKUHSETI 04,20317223,SD,NEGERI,B,Dukuhseti,Selempung,-6.4435,111.0329
SD NEGERI DUMPIL,20316993,SD,NEGERI,B,Dukuhseti,Dumpil,-6.5034,111.0212
SD NEGERI GROGOLAN 01,20317103,SD,NEGERI,B,Dukuhseti,"Desa Grogolan Kec, Dukuhseti Kab. Pati",-6.4861,111.0224
SD NEGERI GROGOLAN 02,20317277,SD,NEGERI,A,Dukuhseti,Grogolan RT.01/II,-6.4881,111.0264
SD NEGERI KEMBANG 01,20317256,SD,NEGERI,A,Dukuhseti,Jl.Raya Tayu - Puncel Km 12,-6.44,111.0117
SD NEGERI KEMBANG 02,20316267,SD,NEGERI,B,Dukuhseti,Kembang,-6.442,111.0151
SD NEGERI KEMBANG 03,20317226,SD,NEGERI,A,Dukuhseti,Jln. Kandangan Kembang,-6.4287,111.0076
SD NEGERI KENANTI,20316266,SD,NEGERI,B,Dukuhseti,Desa Kenanti,-6.4807,111.0413
SD NEGERI NGAGEL 01,20316138,SD,NEGERI,A,Dukuhseti,Ngagel,-6.491,111.0346
SD NEGERI NGAGEL 02,20316137,SD,NEGERI,A,Dukuhseti,RT.04 RW.03,-6.482,111.0363
SD NEGERI PENGGUNG 01,20317253,SD,NEGERI,A,Dukuhseti,Dk. PENGGUNG RT 7 RW 6,-6.444,111.0234
SD NEGERI PUNCEL 01,20316230,SD,NEGERI,A,Dukuhseti,Jl. Raya Tayu-Puncel KM.17,-6.4426,110.9818
SD NEGERI PUNCEL 03,20317225,SD,NEGERI,B,Dukuhseti,Puncel,-6.482,110.9833
SD NEGERI TEGALOMBO 03,20316615,SD,NEGERI,A,Dukuhseti,Tegalombo,-6.4468,110.9937
SD NEGERI TEGALOMBO 04,20317220,SD,NEGERI,A,Dukuhseti,Tegalombo,-6.4909,111.0034
SD NEGERI TEGALOMBO 05,20317219,SD,NEGERI,A,Dukuhseti,Dukuh Tawangrejo Rt 07 Rw 03,-6.4241,110.994
SD NEGERI WEDUSAN,20316435,SD,NEGERI,A,Dukuhseti,Jl. Puncel - Ngablak Km. 05 Desa Wedusan,-6.487,110.9758
SMP BOPKRI 3 DUKUHSETI,20339054,SMP,SWASTA,A,Dukuhseti,Jalan Raya Tayu - Puncel Km. 15,-6.4467,110.9945
SMP NEGERI 1 DUKUHSETI,20338961,SMP,NEGERI,A,Dukuhseti,Jl Alasdowo,-6.4354,111.0424
SMP NEGERI 2 DUKUHSETI,20338981,SMP,NEGERI,A,Dukuhseti,Jl TPI Puncel,-6.4509,110.9805
SMP TERPADU AKN MARZUQI,20338946,SMP,SWASTA,B,Dukuhseti,Dukuhseti,-6.4447961,111.0207133
